time(millisecond),datetime(utc),latitude,longitude,height_above_takeoff(feet),height_above_ground_at_drone_location(feet),ground_elevation_at_drone_location(feet),altitude_above_seaLevel(feet),height_sonar(feet),speed(mph),distance(feet),mileage(feet),satellites,gpslevel,voltage(v),max_altitude(feet),max_ascent(feet),max_speed(mph),max_distance(feet), xSpeed(mph), ySpeed(mph), zSpeed(mph), compass_heading(degrees), pitch(degrees), roll(degrees),isPhoto,isVideo,rc_elevator,rc_aileron,rc_throttle,rc_rudder,rc_elevator(percent),rc_aileron(percent),rc_throttle(percent),rc_rudder(percent),gimbal_heading(degrees),gimbal_pitch(degrees),gimbal_roll(degrees),battery_percent,voltageCell1,voltageCell2,voltageCell3,voltageCell4,voltageCell5,voltageCell6,current(A),battery_temperature(f),altitude(feet),ascent(feet),flycStateRaw,flycState,message
282300,2023-10-24 11:27:06,48.3682385803352,14.5120744308166,0,0,1484.5327417308,1484.5327417308,0,0,0,0,20,5,0,1484.5327417308,0,0,0,0,0,0,343.8, 0.4, -3.9,0,0,1024,1024,1024,1024,0,0,0,0,335.5,0,0,84,,,,,,,0,86.18,1484.5327417308,0,6,P-GPS,"Das Fluggerät fliegt in einer Höhenlage-Zone (500m). Bitte vorsichtig Fliegen."
282400,2023-10-24 11:27:06,48.3682385788833,14.5120744325445,0,0,1484.5327417308,1484.5327417308,0,0,0.0006753117014,0.0006753117014,20,5,0,1484.5327417308,0,0,0.0006753117014,0,0,0,343.8, 0.4, -3.9,0,0,1024,1024,1024,1024,0,0,0,0,335.5,0,0,84,,,,,,,0,86.18,1484.5327417308,0,41,Motors_Started,
282500,2023-10-24 11:27:06,48.3682385750969,14.5120744386823,0,0,1484.5327417308,1484.5327417308,0,0,0.0026995243646,0.00270548565088,20,5,24.139,1484.5327417308,0,0,0.0026995243646,0,0,0,343.8, 0.4, -3.9,0,0,1024,1024,1024,1024,0,0,0,0,335.5,0,0,84,,,,,,,2.135,86.18,1484.5327417308,0,41,Motors_Started,
282500,2023-10-24 11:27:06,48.3682385759964,14.5120744372123,0,0,1484.5327417308,1484.5327417308,0,0,0.00221565623888,0.00318988527268,20,5,24.139,1484.5327417308,0,0,0.0026995243646,0,0,0,343.8, 0.4, -3.9,0,0,1024,1024,1024,1024,0,0,0,0,335.5,0,0,84,,,,,,,2.135,86.18,1484.5327417308,0,41,Motors_Started,
282600,2023-10-24 11:27:06,48.3682385720173,14.5120744415836,0,0,1484.5327417308,1484.5327417308,0,0,0.0040025591832,0.0049871392672,20,5,24.139,1484.5327417308,0,0,0.0040025591832,0,0,0,343.7, 0.4, -3.9,0,0,1024,1024,1024,1024,0,0,0,0,335.5,0,0,84,,,,,,,2.135,86.18,1484.5327417308,0,41,Motors_Started,
282700,2023-10-24 11:27:06,48.3682385702313,14.5120744399073,0,0,1484.5327417308,1484.5327417308,0,0,0.0042947507936,0.005755085486,20,5,24.139,1484.5327417308,0,0,0.0042947507936,0,0,0,343.8, 0.4, -3.9,0,0,1024,1024,1024,1024,0,0,0,0,335.5,0,0,84,,,,,,,2.135,86.18,1484.5327417308,0,41,Motors_Started,
282700,2023-10-24 11:27:06,48.3682385696744,14.5120744393786,0,0,1484.5327417308,1484.5327417308,0,0,0.0044085959416,0.0059952757824,20,5,24.139,1484.5327417308,0,0,0.0044085959416,0,0,0,343.8, 0.4, -3.9,0,0,1024,1024,1024,1024,0,0,0,0,335.5,0,0,84,,,,,,,2.135,86.18,1484.5327417308,0,41,Motors_Started,
282800,2023-10-24 11:27:06,48.3682385671474,14.5120744390949,0,0,1484.5327417308,1484.5327417308,0,0,0.0052131891432,0.0069198493028,20,5,24.139,1484.5327417308,0,0,0.0052131891432,0,0,0,343.7, 0.4, -3.9,0,0,1024,1024,1024,1024,0,0,0,0,335.5,0,0,84,,,,,,,2.135,86.18,1484.5327417308,0,41,Motors_Started,
282900,2023-10-24 11:27:06,48.3682385627657,14.5120744418543,0,0,1484.5327417308,1484.5327417308,0,0,0.0069461288312,0.0086527889908,20,5,24.139,1484.5327417308,0,0,0.0069461288312,0,0,0,343.7, 0.5, -3.9,0,0,1024,1024,1024,1024,0,0,0,0,335.5,0,0,84,,,,,,,2.135,86.18,1484.5327417308,0,41,Motors_Started,
282900,2023-10-24 11:27:06,48.3682385623031,14.5120744421509,0,0,1484.5327417308,1484.5327417308,0,0,0.0071295605956,0.0088362207552,20,5,24.139,1484.5327417308,0,0,0.0071295605956,0,0,0,343.7, 0.5, -3.9,0,0,1024,1024,1024,1024,0,0,0,0,335.5,0,0,84,,,,,,,2.135,86.18,1484.5327417308,0,41,Motors_Started,
283000,2023-10-24 11:27:06,48.3682385584911,14.512074443247,0,0,1484.5327417308,1484.5327417308,0,0,0.0085203086716,0.0102521656824,20,5,24.139,1484.5327417308,0,0,0.0085203086716,0,0,0,343.8, 0.5, -3.9,0,0,1024,1024,1024,1024,0,0,0,0,335.5,0,0,84,,,,,,,2.135,86.18,1484.5327417308,0,41,Motors_Started,
283100,2023-10-24 11:27:06,48.3682385560454,14.5120744408873,0,0,1484.5327417308,1484.5327417308,0,0,0.0091921590868,0.0113120410444,20,5,24.139,1484.5327417308,0,0,0.0091921590868,0,0,0,343.7, 0.5, -4,0,0,1024,1024,1024,1024,0,0,0,0,335.5,0,0,84,,,,,,,2.135,86.18,1484.5327417308,0,41,Motors_Started,
283100,2023-10-24 11:27:06,48.3682385557713,14.5120744406165,0,0,1484.5327417308,1484.5327417308,0,0,0.0092715882232,0.0114316932792,20,5,24.139,1484.5327417308,0,0,0.0092715882232,0,0,0,343.8, 0.5, -4,0,0,1024,1024,1024,1024,0,0,0,0,335.5,0,0,84,,,,,,,2.135,86.18,1484.5327417308,0,41,Motors_Started,"Startpunkt aufgezeichnet. Höhe des Rückflugs: 70,0 m"
283200,2023-10-24 11:27:07,48.3682385541051,14.512074439701,0,0,1484.5327417308,1484.5327417308,0,0,0.0098093178992,0.0120788061608,20,5,24.139,1484.5327417308,0,0,0.0098093178992,0,0,0,343.8, 0.4, -4,0,0,1024,1024,1024,1024,0,0,0,0,335.5,0,0,84,,,,,,,2.135,86.18,1484.5327417308,0,41,Motors_Started,
283300,2023-10-24 11:27:07,48.3682385541394,14.5120744413128,0,0,1484.5327417308,1484.5327417308,0,0,0.0098903546472,0.0124696854384,20,5,24.139,1484.5327417308,0,0,0.0098903546472,0,0,0,343.8, 0.4, -4,0,0,1024,1024,1024,1024,0,0,0,0,335.5,0,0,84,,,,,,,2.135,86.18,1484.5327417308,0,41,Motors_Started,
283300,2023-10-24 11:27:07,48.368238554148,14.5120744417254,0,0,1484.5327417308,1484.5327417308,0,0,0.0099135173776,0.0125697510584,20,5,24.139,1484.5327417308,0,0,0.0099135173776,0,0,0,343.8, 0.5, -4,0,0,1024,1024,1024,1024,0,0,0,0,335.5,0,0,84,,,,,,,2.135,86.18,1484.5327417308,0,41,Motors_Started,
283400,2023-10-24 11:27:07,48.3682385568763,14.5120744467414,0,0,1484.5327417308,1484.5327417308,0,0,0.0093890751036,0.014141076568,20,5,24.139,1484.5327417308,0,0,0.0099135173776,0,0,0,343.8, 0.5, -4,0,0,1024,1024,1024,1024,0,0,0,0,335.5,0,0,84,,,,,,,2.135,86.18,1484.5327417308,0,41,Motors_Started,
283500,2023-10-24 11:27:07,48.3682385640892,14.5120744571472,0,0,1484.5327417308,1484.5327417308,0,0,0.0087100396488,0.0177861882332,20,5,24.139,1484.5327417308,0,0,0.0099135173776,0,0,0,343.8, 0.4, -4,0,0,1024,1024,1024,1024,0,0,0,0,335.5,0,0,84,,,,,,,2.135,86.18,1484.5327417308,0,41,Motors_Started,
283500,2023-10-24 11:27:07,48.3682385663464,14.5120744603966,0,0,1484.5327417308,1484.5327417308,0,0,0.0088007876832,0.0189257551988,20,5,24.104,1484.5327417308,0,0,0.0099135173776,0,0,0,343.8, 0.5, -4,0,0,1024,1024,1024,1024,0,0,0,0,335.5,0,0,84,,,,,,,7.355,86.18,1484.5327417308,0,41,Motors_Started,
283600,2023-10-24 11:27:07,48.3682385743688,14.512074473304,0,0,1484.5327417308,1484.5327417308,0,0,0.0105258205468,0.0232100073044,20,5,24.104,1484.5327417308,0,0,0.0105258205468,0,0,0,343.8, 0.5, -3.9,0,0,1024,1024,1024,1024,0,0,0,0,335.5,0,0,84,,,,,,,7.355,86.18,1484.5327417308,0,41,Motors_Started,
283700,2023-10-24 11:27:07,48.3682385783564,14.5120744820465,0,0,1484.5327417308,1484.5327417308,0,0,0.0124382877996,0.0257804142108,20,5,24.104,1484.5327417308,0,0,0.0124382877996,0,0,0,343.8, 0.5, -4,0,0,1024,1024,1024,1024,0,0,0,0,335.5,0,0,84,,,,,,,7.355,86.18,1484.5327417308,0,41,Motors_Started,
283700,2023-10-24 11:27:07,48.3682385796885,14.5120744849607,0,0,1484.5327417308,1484.5327417308,0,0,0.0131257878216,0.026637796128,20,5,24.104,1484.5327417308,0,0,0.0131257878216,0,0,0,343.8, 0.4, -3.9,0,0,1024,1024,1024,1024,0,0,0,0,335.5,0,0,84,,,,,,,7.355,86.18,1484.5327417308,0,41,Motors_Started,
283800,2023-10-24 11:27:07,48.3682385832649,14.5120744917561,0,0,1484.5327417308,1484.5327417308,0,0,0.014809383676,0.0287391413396,20,5,24.104,1484.5327417308,0,0,0.014809383676,0,0,0,343.8, 0.5, -4,0,0,1024,1024,1024,1024,0,0,0,0,335.5,0,0,84,,,,,,,7.355,86.18,1484.5327417308,0,41,Motors_Started,
283900,2023-10-24 11:27:07,48.3682385840787,14.5120744917174,0,0,1484.5327417308,1484.5327417308,0,0,0.0148244427316,0.0290362214016,20,5,24.104,1484.5327417308,0,0,0.0148244427316,0,0,0,343.8, 0.5, -4,0,0,1024,1024,1024,1024,0,0,0,0,335.5,0,0,84,,,,,,,7.355,86.18,1484.5327417308,0,41,Motors_Started,
283900,2023-10-24 11:27:07,48.3682385843314,14.5120744916916,0,0,1484.5327417308,1484.5327417308,0,0,0.0148270017868,0.029128609856,20,5,24.126,1484.5327417308,0,0,0.0148270017868,0,0,0,343.8, 0.5, -4,0,0,1024,1024,1024,1024,0,0,0,0,335.5,0,0,84,,,,,,,1.269,85.64,1484.5327417308,0,41,Motors_Started,
284000,2023-10-24 11:27:07,48.3682385842929,14.5120744924911,0,0,1484.5327417308,1484.5327417308,0,0,0.0150184716092,0.0293229012008,20,5,24.126,1484.5327417308,0,0,0.0150184716092,0,0,0,343.8, 0.5, -4,0,0,1024,1024,1024,1024,0,0,0,0,335.5,0,0,84,,,,,,,1.269,85.64,1484.5327417308,0,41,Motors_Started,
284100,2023-10-24 11:27:07,48.3682385824982,14.5120744949539,0,0,1484.5327417308,1484.5327417308,0,0,0.0155658797632,0.0302089576596,20,5,24.126,1484.5327417308,0,0,0.0155658797632,0,0,0,343.8, 0.5, -4,0,0,1024,1024,1024,1024,0,0,0,0,335.5,0,0,84,,,,,,,1.269,85.64,1484.5327417308,0,41,Motors_Started,
284100,2023-10-24 11:27:07,48.3682385820999,14.5120744954955,0,0,1484.5327417308,1484.5327417308,0,0,0.0156903548328,0.0304047909992,20,5,24.126,1484.5327417308,0,0,0.0156903548328,0,0,0,343.8, 0.4, -4,0,0,1024,1024,1024,1024,0,0,0,0,335.5,0,0,84,,,,,,,1.269,85.64,1484.5327417308,0,41,Motors_Started,
284200,2023-10-24 11:27:08,48.3682385803053,14.5120744976489,0,0,1484.5327417308,1484.5327417308,0,0,0.0161990818832,0.0312421597924,20,5,24.126,1484.5327417308,0,0,0.0161990818832,0,0,0,343.8, 0.4, -4,0,0,1024,1024,1024,1024,0,0,0,0,335.5,0,0,84,,,,,,,1.269,85.64,1484.5327417308,0,41,Motors_Started,
284300,2023-10-24 11:27:08,48.3682385786477,14.5120744998796,0,0,1484.5327417308,1484.5327417308,0,0,0.0167510832132,0.0320533802908,20,5,24.126,1484.5327417308,0,0,0.0167510832132,0,0,0,343.8, 0.5, -4,0,0,1024,1024,1024,1024,0,0,0,0,335.5,0,0,84,,,,,,,1.269,85.64,1484.5327417308,0,41,Motors_Started,
284300,2023-10-24 11:27:08,48.3682385781637,14.5120745005372,0,-0.03280839999997,1484.5655501308,1484.5327417308,0,0,0.0169177498852,0.0322912739992,20,5,24.126,1484.5327417308,0,0,0.0169177498852,0,0,0,343.8, 0.5, -4,0,0,1024,1024,1024,1024,0,0,0,0,335.5,0,0,84,,,,,,,1.269,85.64,1484.5327417308,0,41,Motors_Started,
284400,2023-10-24 11:27:08,48.3682385784464,14.5120744930455,0,0,1484.5327417308,1484.5327417308,0,0,0.0150990490396,0.034109909228,20,5,24.126,1484.5327417308,0,0,0.0169177498852,0,0,0,343.8, 0.5, -4,0,0,1024,1024,1024,1024,0,0,0,0,335.5,0,0,84,,,,,,,1.269,85.64,1484.5327417308,0,41,Motors_Started,
284500,2023-10-24 11:27:08,48.3682385808578,14.5120744781653,0,0,1484.5327417308,1484.5327417308,0,0,0.0114781499736,0.037822507772,20,5,24.126,1484.5327417308,0,0,0.0169177498852,0,0,0,343.8, 0.5, -4,0,0,1024,1024,1024,1024,0,0,0,0,335.5,0,0,84,,,,,,,1.269,85.64,1484.5327417308,0,11,AutoTakeoff,
284500,2023-10-24 11:27:08,48.3682385813375,14.5120744751866,0,0,1484.5327417308,1484.5327417308,0,0,0.0107607943076,0.038565289948,20,5,24.126,1484.5327417308,0,0,0.0169177498852,0,0,0,343.8, 0.4, -4,0,0,1024,1024,1024,1024,0,0,0,0,335.5,0,0,84,,,,,,,1.269,85.64,1484.5327417308,0,11,AutoTakeoff,
284600,2023-10-24 11:27:08,48.3682385848626,14.5120744550841,0,0,1484.5327417308,1484.5327417308,0,0,0.006109580248,0.043604988272,20,5,24.126,1484.5327417308,0,0,0.0169177498852,0,0,0,343.8, 0.5, -4,0,0,1024,1024,1024,1024,0,0,0,0,335.5,0,0,84,,,,,,,1.269,85.64,1484.5327417308,0,11,AutoTakeoff,
284700,2023-10-24 11:27:08,48.3682385881777,14.5120744385791,0,0,1484.5327417308,1484.5327417308,0,0,0.0034245079836,0.047784122264,20,5,24.126,1484.5327417308,0,0,0.0169177498852,0,0,0,343.8, 0.5, -4,0,0,1024,1024,1024,1024,0,0,0,0,335.5,0,0,84,,,,,,,1.269,85.64,1484.5327417308,0,11,AutoTakeoff,
284700,2023-10-24 11:27:08,48.3682385892143,14.5120744334213,0,0,1484.5327417308,1484.5327417308,0,0,0.0033004594232,0.049090224668,20,5,24.126,1484.5327417308,0,0,0.0169177498852,0,0,0,343.8, 0.4, -4,0,0,1024,1024,1024,1024,0,0,0,0,335.5,0,0,84,,,,,,,1.269,85.64,1484.5327417308,0,11,AutoTakeoff,
284800,2023-10-24 11:27:08,48.3682385930091,14.5120744148146,0,0,1484.5327417308,1484.5327417308,0,0,0.0060354004556,0.053808072588,20,5,24.126,1484.5327417308,0,0,0.0169177498852,0,0,0,343.8, 0.5, -4,0,0,1024,1024,1024,1024,0,0,0,0,335.5,0,0,84,,,,,,,1.269,85.64,1484.5327417308,0,11,AutoTakeoff,
284900,2023-10-24 11:27:08,48.3682385957075,14.5120744020361,0,0,1484.5327417308,1484.5327417308,0,0,0.0089509845384,0.057058072692,20,5,24.126,1484.5327417308,0,0,0.0169177498852,0,0,0,343.8, 0.4, -4,0,0,1024,1024,1024,1024,0,0,0,0,335.5,0,0,84,,,,,,,1.269,85.64,1484.5327417308,0,11,AutoTakeoff,
284900,2023-10-24 11:27:08,48.3682385963843,14.5120743988383,0,0,1484.5327417308,1484.5327417308,0,0,0.0097141735392,0.057871721012,20,5,24.126,1484.5327417308,0,0,0.0169177498852,0,0,0,343.8, 0.4, -4,0,0,1024,1024,1024,1024,0,0,0,0,335.5,0,0,84,,,,,,,1.269,85.64,1484.5327417308,0,11,AutoTakeoff,
285000,2023-10-24 11:27:08,48.3682385995667,14.5120743871301,0,0,1484.5327417308,1484.5327417308,0,0,0.0127026906952,0.060937665992,20,5,24.124,1484.5327417308,0,0,0.0169177498852,0,0,0,343.8, 0.5, -4,0,0,1024,1024,1024,1024,0,0,0,0,335.5,0,0,84,,,,,,,1.731,85.64,1484.5327417308,0,11,AutoTakeoff,
285100,2023-10-24 11:27:08,48.3682386018924,14.5120743828878,0,0,1484.5327417308,1484.5327417308,0,0,0.0140292327324,0.062270999368,20,5,24.124,1484.5327417308,0,0,0.0169177498852,0,0,0,343.8, 0.5, -4,0,0,1024,1024,1024,1024,0,0,0,0,335.5,0,0,84,,,,,,,1.731,85.64,1484.5327417308,0,11,AutoTakeoff,
285100,2023-10-24 11:27:09,48.3682386024749,14.5120743818304,0,0,1484.5327417308,1484.5327417308,0,0,0.0143606631892,0.062604004628,20,5,24.124,1484.5327417308,0,0,0.0169177498852,0,0,0,343.8, 0.4, -4,0,0,1024,1024,1024,1024,0,0,0,0,335.5,0,0,84,,,,,,,1.731,85.64,1484.5327417308,0,11,AutoTakeoff,
285200,2023-10-24 11:27:09,48.3682386075976,14.5120743793031,0,0,1484.5327417308,1484.5327417308,0,0,0.0159636488048,0.064570868208,20,5,24.124,1484.5327417308,0,0,0.0169177498852,0,0,0,343.8, 0.5, -4,0,0,1024,1024,1024,1024,0,0,0,0,335.5,0,0,84,,,,,,,1.731,85.64,1484.5327417308,0,11,AutoTakeoff,
285300,2023-10-24 11:27:09,48.3682386134698,14.5120743795739,0,0,1484.5327417308,1484.5327417308,0,0,0.0173324808696,0.06671424098,20,5,24.124,1484.5327417308,0,0,0.0173324808696,0,0,0,343.8, 0.5, -4,0,0,1024,1024,1024,1024,0,0,0,0,335.5,0,0,84,,,,,,,1.731,85.64,1484.5327417308,0,11,AutoTakeoff,
285300,2023-10-24 11:27:09,48.3682386150375,14.5120743796384,0,0,1484.5327417308,1484.5327417308,0,0,0.0177251974176,0.067286419476,20,5,24.124,1484.5327417308,0,0,0.0177251974176,0,0,0,343.8, 0.5, -4,0,0,1024,1024,1024,1024,0,0,0,0,335.5,0,0,84,,,,,,,1.731,85.64,1484.5327417308,0,11,AutoTakeoff,
285400,2023-10-24 11:27:09,48.3682386199888,14.5120743749061,0,0,1484.5327417308,1484.5327417308,0,0,0.0198232945976,0.069426183324,20,5,24.124,1484.5327417308,0,0,0.0198232945976,0,0,0,343.8, 0.5, -4,0,0,1024,1024,1024,1024,0,0,0,0,335.5,0,0,84,,,,,,,1.731,85.64,1484.5327417308,0,11,AutoTakeoff,
285500,2023-10-24 11:27:09,48.3682386209439,14.5120743616505,0,0,1484.5327417308,1484.5327417308,0,0,0.0223734915296,0.072658138808,20,5,24.124,1484.5327417308,0,0,0.0223734915296,0,0,0,343.8, 0.5, -4,0,0,1024,1024,1024,1024,0,0,0,0,335.5,0,0,84,,,,,,,1.731,85.64,1484.5327417308,0,11,AutoTakeoff,
285500,2023-10-24 11:27:09,48.3682386210467,14.5120743601805,0,0,1484.5327417308,1484.5327417308,0,0,0.0226662736912,0.073016406536,20,5,24.124,1484.5327417308,0,0,0.0226662736912,0,0,0,343.8, 0.5, -4,0,0,1024,1024,1024,1024,0,0,0,0,335.5,0,0,84,,,,,,,1.731,85.64,1484.5327417308,0,11,AutoTakeoff,
285600,2023-10-24 11:27:09,48.3682386229056,14.5120743498907,0,0,1484.5327417308,1484.5327417308,0,0,0.0250198170736,0.075601052288,20,5,24.124,1484.5327417308,0,0,0.0250198170736,0,0,0,343.8, 0.5, -4,0,0,1024,1024,1024,1024,0,0,0,0,335.5,0,0,84,,,,,,,1.731,85.64,1484.5327417308,0,11,AutoTakeoff,
285700,2023-10-24 11:27:09,48.3682386258182,14.5120743476084,0,0,1484.5327417308,1484.5327417308,0,0,0.026117782988,0.076798886972,20,5,24.124,1484.5327417308,0,0,0.026117782988,0,0,0,343.8, 0.5, -4,0,0,1024,1024,1024,1024,0,0,0,0,335.5,0,0,84,,,,,,,1.731,85.64,1484.5327417308,0,11,AutoTakeoff,
285700,2023-10-24 11:27:09,48.3682386265463,14.512074347041,0,0,1484.5327417308,1484.5327417308,0,0,0.0263930126556,0.07709809958,20,5,24.124,1484.5327417308,0,0,0.0263930126556,0,0,0,343.8, 0.5, -4,0,0,1024,1024,1024,1024,0,0,0,0,335.5,0,0,84,,,,,,,1.731,85.64,1484.5327417308,0,11,AutoTakeoff,
285800,2023-10-24 11:27:09,48.3682386281525,14.5120743417543,0,0,1484.5327417308,1484.5327417308,0,0,0.0277557095496,0.07850722036,20,5,24.124,1484.5327417308,0,0,0.0277557095496,0,0,0,343.8, 0.5, -4,0,0,1024,1024,1024,1024,0,0,0,0,335.5,0,0,84,,,,,,,1.731,85.64,1484.5327417308,0,11,AutoTakeoff,
285900,2023-10-24 11:27:09,48.3682386268547,14.5120743343657,0,0,1484.5327417308,1484.5327417308,0,0,0.028889600662,0.080359582624,20,5,24.124,1484.5327417308,0,0,0.028889600662,0,0,0,343.8, 0.5, -4,0,0,1024,1024,1024,1024,0,0,0,0,335.5,0,0,84,,,,,,,1.731,85.64,1484.5327417308,0,11,AutoTakeoff,
285900,2023-10-24 11:27:09,48.3682386264478,14.5120743320576,0,0,1484.5327417308,1484.5327417308,0,0,0.02925853112,0.0809383228,20,5,24.124,1484.5327417308,0,0,0.02925853112,0,0,0,343.8, 0.5, -4,0,0,1024,1024,1024,1024,0,0,0,0,335.5,0,0,84,,,,,,,1.731,85.64,1484.5327417308,0,11,AutoTakeoff,
286000,2023-10-24 11:27:09,48.3682386279683,14.5120743237149,0,0,1484.5327417308,1484.5327417308,0,0,0.031239994438,0.083035435728,20,5,24.13,1484.5327417308,0,0,0.031239994438,0,0,0,343.8, 0.5, -4,0,0,1024,1024,1024,1024,0,0,0,0,335.5,0,0,84,,,,,,,1.698,85.64,1484.5327417308,0,11,AutoTakeoff,
286100,2023-10-24 11:27:09,48.3682386331381,14.512074316739,0,0,1484.5327417308,1484.5327417308,0,0,0.033700132312,0.085568572292,20,5,24.13,1484.5327417308,0,0,0.033700132312,0,0,0,343.8, 0.5, -4,0,0,1024,1024,1024,1024,0,0,0,0,335.5,0,0,84,,,,,,,1.698,85.64,1484.5327417308,0,11,AutoTakeoff,
286100,2023-10-24 11:27:10,48.3682386348642,14.5120743144051,0,0,1484.5327417308,1484.5327417308,0,0,0.034524935488,0.086415029012,20,5,24.13,1484.5327417308,0,0,0.034524935488,0,0,0,343.8, 0.5, -4,0,0,1024,1024,1024,1024,0,0,0,0,335.5,0,0,84,,,,,,,1.698,85.64,1484.5327417308,0,11,AutoTakeoff,
286200,2023-10-24 11:27:10,48.3682386410791,14.512074308667,0,0,1484.5327417308,1484.5327417308,0,0,0.0369832689,0.089075134084,20,5,24.13,1484.5327417308,0,0,0.0369832689,0,0,0,343.8, 0.5, -4,0,0,1024,1024,1024,1024,0,0,0,0,335.5,0,0,84,,,,,,,1.698,85.64,1484.5327417308,0,11,AutoTakeoff,
286300,2023-10-24 11:27:10,48.3682386461761,14.5120743078804,0,0,1484.5327417308,1484.5327417308,0,0,0.038274935608,0.090944556716,20,5,24.13,1484.5327417308,0,0,0.038274935608,0,0,0,343.8, 0.5, -4,0,0,1024,1024,1024,1024,0,0,0,0,335.5,0,0,84,,,,,,,1.698,85.64,1484.5327417308,0,11,AutoTakeoff,
286300,2023-10-24 11:27:10,48.3682386473068,14.5120743076999,0,0,1484.5327417308,1484.5327417308,0,0,0.038568898872,0.091359254892,20,5,24.13,1484.5327417308,0,0,0.038568898872,0,0,0,343.8, 0.5, -4,0,0,1024,1024,1024,1024,0,0,0,0,335.5,0,0,84,,,,,,,1.698,85.64,1484.5327417308,0,11,AutoTakeoff,
286400,2023-10-24 11:27:10,48.3682386492985,14.5120743196789,0,0,1484.5327417308,1484.5327417308,0,0,0.036861221652,0.094352365224,20,5,24.13,1484.5327417308,0,0,0.038568898872,0,0,0,343.8, 0.5, -4,0,0,1024,1024,1024,1024,0,0,0,0,335.5,0,0,84,,,,,,,1.698,85.64,1484.5327417308,0,11,AutoTakeoff,
286500,2023-10-24 11:27:10,48.3682386473411,14.5120743440624,0,0,1484.5327417308,1484.5327417308,0,0,0.032246392108,0.100305449404,20,5,24.13,1484.5327417308,0,0,0.038568898872,0,0,0,343.8, 0.4, -4,0,0,1024,1024,1024,1024,0,0,0,0,335.5,0,0,84,,,,,,,1.698,85.64,1484.5327417308,0,11,AutoTakeoff,
286500,2023-10-24 11:27:10,48.3682386468528,14.5120743501615,0,0,1484.5327417308,1484.5327417308,0,0,0.0311635180576,0.10179462268,20,5,24.13,1484.5327417308,0,0,0.038568898872,0,0,0,343.8, 0.4, -4,0,0,1024,1024,1024,1024,0,0,0,0,335.5,0,0,84,,,,,,,1.698,85.64,1484.5327417308,0,11,AutoTakeoff,
286600,2023-10-24 11:27:10,48.368238645101,14.5120743759763,0,0,1484.5327417308,1484.5327417308,0,0,0.027111877508,0.108084321044,20,5,24.13,1484.5327417308,0,0,0.038568898872,0,0,0,343.8, 0.4, -3.9,0,0,1024,1024,1024,1024,0,0,0,0,335.5,0,0,84,,,,,,,1.698,85.64,1484.5327417308,0,11,AutoTakeoff,
286700,2023-10-24 11:27:10,48.3682386445271,14.5120743997409,0,0,1484.5327417308,1484.5327417308,0,0,0.0246017724408,0.113848100756,20,5,24.13,1484.5327417308,0,0,0.038568898872,0,0,0,343.8, 0.3, -3.9,0,0,1024,1024,1024,1024,0,0,0,0,335.5,0,0,84,,,,,,,1.698,85.64,1484.5327417308,0,11,AutoTakeoff,
286700,2023-10-24 11:27:10,48.3682386444071,14.512074404744,0,0,1484.5327417308,1484.5327417308,0,0,0.0242157488064,0.115061683472,21,5,24.13,1484.5327417308,0,0,0.038568898872,0,0,0,343.8, 0.3, -3.9,0,0,1024,1024,1024,1024,0,0,0,0,335.5,0,0,84,,,,,,,1.698,85.64,1484.5327417308,0,11,AutoTakeoff,
286800,2023-10-24 11:27:10,48.3682386436747,14.51207442259,0,0,1484.5327417308,1484.5327417308,0,0,0.0231952435244,0.119395345028,21,5,24.13,1484.5327417308,0,0,0.038568898872,0,0,0,343.8, 0.2, -3.8,0,0,1024,1024,1024,1024,0,0,0,0,335.5,0,0,84,,,,,,,1.698,85.64,1484.5327417308,0,11,AutoTakeoff,
286900,2023-10-24 11:27:10,48.3682386431308,14.5120744301461,0,0,1484.5327417308,1484.5327417308,0,0,0.0229114836728,0.121237536688,21,5,24.13,1484.5327417308,0,0,0.038568898872,0,0,0,343.9, 0.3, -3.4,0,0,1024,1024,1024,1024,0,0,0,0,335.5,0,0,84,,,,,,,1.698,85.64,1484.5327417308,0,11,AutoTakeoff,
286900,2023-10-24 11:27:10,48.3682386430622,14.5120744310874,0,0,1484.5327417308,1484.5327417308,0,0,0.022885991546,0.121467195488,21,5,24.13,1484.5327417308,0,0,0.038568898872,0,0,0,343.9, 0.2, -3.2,0,0,1024,1024,1024,1024,0,0,0,0,335.5,0,0,84,,,,,,,1.698,85.64,1484.5327417308,0,11,AutoTakeoff,
287000,2023-10-24 11:27:10,48.3682386427538,14.5120744419446,0,0,1484.5327417308,1484.5327417308,0,0,0.0229325466656,0.124101381924,21,5,23.924,1484.5327417308,0,0,0.038568898872,0,0,-0.223694,343.8, -0.6, -1.5,0,0,1024,1024,1024,1024,0,0,0,0,335.5,0,0,84,,,,,,,7.568,85.64,1484.5327417308,0,11,AutoTakeoff,
287100,2023-10-24 11:27:10,48.3682386484119,14.5120744355876,0,0,1484.5327417308,1484.5327417308,0,0,0.0248646333416,0.126677169408,21,5,23.924,1484.5327417308,0,0,0.038568898872,0,0,-0.447388,343.4, -2, 0.1,0,0,1024,1024,1024,1024,0,0,0,0,335.5,0,0,84,,,,,,,7.568,85.64,1484.5327417308,0,11,AutoTakeoff,
287100,2023-10-24 11:27:10,48.3682386497054,14.5120744340016,0,0,1484.5327417308,1484.5327417308,0,0,0.0253214246948,0.127285765228,21,5,23.924,1484.5327417308,0,0,0.038568898872,0,0,-0.671082,343.3, -2.2, 0.3,0,0,1024,1024,1024,1024,0,0,0,0,335.5,0,0,84,,,,,,,7.568,85.64,1484.5327417308,0,11,AutoTakeoff,
287200,2023-10-24 11:27:11,48.3682386925285,14.5120744038027,0,0,1484.5327417308,1484.5327417308,0.328084,0,0.041454069568,0.144539374704,21,5,23.924,1484.5327417308,0,0,0.041454069568,0,0,-1.11847,343.2, -1.9, 1,0,0,1024,1024,1024,1024,0,0,0,0,335.5,0,0,84,,,,,,,7.568,85.64,1484.5327417308,0,11,AutoTakeoff,
287300,2023-10-24 11:27:11,48.3682387586563,14.51207437479,0,0,1484.5327417308,1484.5327417308,0.328084,0,0.066462600552,0.16967028102,21,5,23.924,1484.5327417308,0,0,0.066462600552,0.223694,0,-1.342164,343.3, -0.4, 1.1,0,0,1024,1024,1024,1024,0,0,0,0,335.5,0,0,84,,,,,,,7.568,85.64,1484.5327417308,0,11,AutoTakeoff,
287300,2023-10-24 11:27:11,48.3682387780462,14.5120743689359,0,0,1484.5327417308,1484.5327417308,0.328084,0.223694,0.073677495796,0.176885504348,21,5,23.924,1484.5327417308,0,0.223694,0.073677495796,0.223694,0,-1.342164,343.3, 0, 1.1,0,0,1024,1024,1024,1024,0,0,0,0,335.5,0,0,84,,,,,,,7.568,85.64,1484.5327417308,0,11,AutoTakeoff,
287400,2023-10-24 11:27:11,48.3682388658511,14.5120743503678,0.328084,0.328084,1484.5327417308,1484.8608257308,0.328084,0.223694,0.105979662184,0.209235571,21,5,23.924,1484.8608257308,0.328084,0.223694,0.105979662184,0.223694,0,-1.342164,343.4, 1.3, 0.6,0,0,1024,1024,1024,1024,0,0,0,0,335.5,0,0,84,,,,,,,7.568,85.64,1484.8608257308,0.328084,11,AutoTakeoff,
287500,2023-10-24 11:27:11,48.3682389470214,14.5120743380665,0.656168,0.656168,1484.5327417308,1485.1889097308,0.656168,0.223694,0.13566109358,0.239000335732,21,5,23.924,1485.1889097308,0.656168,0.223694,0.13566109358,0.223694,0,-1.342164,343.4, 1.7, -0.3,0,0,1024,1024,1024,1024,0,0,0,0,335.5,0,0,84,,,,,,,7.568,85.64,1485.1889097308,0.656168,11,AutoTakeoff,
287500,2023-10-24 11:27:11,48.3682389698164,14.5120743381438,0.656168,0.656168,1484.5327417308,1485.1889097308,0.984252,0,0.14386647442,0.247316937048,21,5,23.924,1485.1889097308,0.656168,0.223694,0.14386647442,0,0,-1.342164,343.4, 1.7, -0.5,0,0,1024,1024,1024,1024,0,0,0,0,335.5,0,0,84,,,,,,,7.568,85.64,1485.1889097308,0.656168,11,AutoTakeoff,
287600,2023-10-24 11:27:11,48.368239044986,14.5120743548293,0.984252,0.984252,1484.5327417308,1485.5169937308,0.984252,0,0.170525267924,0.275039050796,21,5,23.924,1485.5169937308,0.984252,0.223694,0.170525267924,0,0,-1.342164,343.4, 1.5, -1.4,0,0,1024,1024,1024,1024,0,0,0,0,335.5,0,0,84,,,,,,,7.568,85.64,1485.5169937308,0.984252,11,AutoTakeoff,
287700,2023-10-24 11:27:11,48.3682390816114,14.5120743678915,0.984252,0.984252,1484.5327417308,1485.5169937308,1.312336,0,0.18352526834,0.288771990868,21,5,23.924,1485.5169937308,0.984252,0.223694,0.18352526834,0,0,-1.342164,343.4, 1.3, -1.7,0,0,1024,1024,1024,1024,0,0,0,0,335.5,0,0,84,,,,,,,7.568,85.64,1485.5169937308,0.984252,11,AutoTakeoff,
287700,2023-10-24 11:27:11,48.3682390899164,14.5120743692841,1.312336,1.312336,1484.5327417308,1485.8450777308,1.312336,0,0.186517722504,0.29182087548,21,5,23.924,1485.8450777308,1.312336,0.223694,0.186517722504,0,0,-1.342164,343.4, 1.3, -1.8,0,0,1024,1024,1024,1024,0,0,0,0,335.5,0,0,84,,,,,,,7.568,85.64,1485.8450777308,1.312336,11,AutoTakeoff,
287800,2023-10-24 11:27:11,48.3682391055842,14.5120743615474,1.312336,1.312336,1484.5327417308,1485.8450777308,1.64042,0,0.192370741064,0.297836951788,21,5,23.924,1485.8450777308,1.312336,0.223694,0.192370741064,0,0,-1.342164,343.5, 1.2, -1.8,0,0,1024,1024,1024,1024,0,0,0,0,335.5,0,0,84,,,,,,,7.568,85.64,1485.8450777308,1.312336,11,AutoTakeoff,
287900,2023-10-24 11:27:11,48.3682391014596,14.5120743339144,1.64042,1.64042,1484.5327417308,1486.1731617308,1.64042,0,0.191577105868,0.304701781404,21,5,23.924,1486.1731617308,1.64042,0.223694,0.192370741064,0,0,-1.11847,343.5, 1.1, -1.5,0,0,1024,1024,1024,1024,0,0,0,0,335.5,0,0,84,,,,,,,7.568,85.64,1486.1731617308,1.64042,11,AutoTakeoff,
287900,2023-10-24 11:27:11,48.3682390984742,14.5120743271835,1.64042,1.64042,1484.5327417308,1486.1731617308,1.64042,0,0.190704074344,0.30666339564,21,5,23.924,1486.1731617308,1.64042,0.223694,0.192370741064,0,0,-1.11847,343.5, 1.1, -1.4,0,0,1024,1024,1024,1024,0,0,0,0,335.5,0,0,84,,,,,,,7.568,85.64,1486.1731617308,1.64042,11,AutoTakeoff,
288000,2023-10-24 11:27:11,48.368239076887,14.5120742945346,1.64042,1.64042,1484.5327417308,1486.1731617308,1.968504,0,0.1841535492,0.317828422244,21,5,23.871,1486.1731617308,1.64042,0.223694,0.192370741064,0,0,-1.11847,343.5, 0.7, -0.6,0,0,1024,1024,1024,1024,0,0,0,0,335.5,0,0,84,,,,,,,9.366,85.64,1486.1731617308,1.64042,11,AutoTakeoff,
288100,2023-10-24 11:27:11,48.3682390402531,14.5120742613055,1.968504,1.968504,1484.5327417308,1486.5012457308,1.968504,0,0.17275755146,0.3334317692,21,5,23.871,1486.5012457308,1.968504,0.223694,0.192370741064,0,0,-1.11847,343.5, 0.4, -0.1,0,0,1024,1024,1024,1024,0,0,0,0,335.5,0,0,84,,,,,,,9.366,85.64,1486.5012457308,1.968504,11,AutoTakeoff,
288100,2023-10-24 11:27:11,48.3682390357515,14.5120742582753,1.968504,1.968504,1484.5327417308,1486.5012457308,1.968504,0,0.171340556664,0.33523295036,21,5,23.871,1486.5012457308,1.968504,0.223694,0.192370741064,0,0,-1.11847,343.5, 0.3, 0,0,0,1024,1024,1024,1024,0,0,0,0,335.5,0,0,84,,,,,,,9.366,85.64,1486.5012457308,1.968504,11,AutoTakeoff,
288200,2023-10-24 11:27:12,48.3682389820277,14.512074227509,1.968504,1.968504,1484.5327417308,1486.5012457308,2.296588,0,0.154620083688,0.35620407964,21,5,23.871,1486.5012457308,1.968504,0.223694,0.192370741064,0,0,-1.11847,343.6, 0, 0,0,0,1024,1024,1024,1024,0,0,0,0,335.5,0,0,84,,,,,,,9.366,85.64,1486.5012457308,1.968504,11,AutoTakeoff,
288300,2023-10-24 11:27:12,48.3682389464603,14.5120742128479,2.296588,2.296588,1484.5327417308,1486.8293297308,2.296588,0,0.143648954728,0.36965880448,21,5,23.871,1486.8293297308,2.296588,0.223694,0.192370741064,0,0,-1.11847,343.6, -0.1, -0.1,0,0,1024,1024,1024,1024,0,0,0,0,335.5,0,0,84,,,,,,,9.366,85.64,1486.8293297308,2.296588,11,AutoTakeoff,
288300,2023-10-24 11:27:12,48.3682389269334,14.5120742070583,2.296588,2.296588,1484.5327417308,1486.8293297308,2.296588,0,0.137595804928,0.3769193034,21,5,23.871,1486.8293297308,2.296588,0.223694,0.192370741064,0,0,-1.11847,343.6, -0.2, -0.1,0,0,1024,1024,1024,1024,0,0,0,0,335.5,0,0,84,,,,,,,9.366,85.64,1486.8293297308,2.296588,11,AutoTakeoff,
288400,2023-10-24 11:27:12,48.3682388727042,14.5120741939059,2.296588,2.296588,1484.5327417308,1486.8293297308,2.624672,0,0.121145017,0.39696195496,21,5,23.871,1486.8293297308,2.296588,0.223694,0.192370741064,0,0,-1.11847,343.6, -0.7, -0.1,0,0,1024,1024,1024,1024,0,0,0,0,335.5,0,0,84,,,,,,,9.366,85.64,1486.8293297308,2.296588,11,AutoTakeoff,
288500,2023-10-24 11:27:12,48.3682388105126,14.512074178368,2.624672,2.624672,1484.5327417308,1487.1574137308,2.624672,0,0.103907811724,0.41996064336,21,5,23.871,1487.1574137308,2.624672,0.223694,0.192370741064,0,0,-1.11847,343.6, -1.1, -0.1,0,0,1024,1024,1024,1024,0,0,0,0,335.5,0,0,84,,,,,,,9.366,85.64,1487.1574137308,2.624672,11,AutoTakeoff,
288500,2023-10-24 11:27:12,48.3682387925833,14.5120741744223,2.624672,2.624672,1484.5327417308,1487.1574137308,2.624672,0,0.099291669844,0.42657153596,21,5,23.871,1487.1574137308,2.624672,0.223694,0.192370741064,0,0,-1.11847,343.6, -1.1, -0.1,0,0,1024,1024,1024,1024,0,0,0,0,335.5,0,0,84,,,,,,,9.366,85.64,1487.1574137308,2.624672,11,AutoTakeoff,
288600,2023-10-24 11:27:12,48.3682387336426,14.5120741587813,2.624672,2.624672,1484.5327417308,1487.1574137308,2.952756,0,0.086465882032,0.448408807,21,5,23.871,1487.1574137308,2.624672,0.223694,0.192370741064,0,0,-1.11847,343.7, -1.1, -0.3,0,0,1024,1024,1024,1024,0,0,0,0,335.5,0,0,84,,,,,,,9.366,85.64,1487.1574137308,2.624672,11,AutoTakeoff,
288700,2023-10-24 11:27:12,48.3682387004438,14.5120741493941,2.952756,2.952756,1484.5327417308,1487.4854977308,2.952756,0,0.081075789996,0.46073164204,21,5,23.871,1487.4854977308,2.952756,0.223694,0.192370741064,0,0,-1.11847,343.7, -1.1, -0.5,0,0,1024,1024,1024,1024,0,0,0,0,335.5,0,0,84,,,,,,,9.366,85.64,1487.4854977308,2.952756,11,AutoTakeoff,
288700,2023-10-24 11:27:12,48.3682386910851,14.5120741459899,2.952756,2.952756,1484.5327417308,1487.4854977308,2.952756,0,0.079993112796,0.46424542168,21,5,23.871,1487.4854977308,2.952756,0.223694,0.192370741064,0,0,-1.11847,343.7, -1.1, -0.5,0,0,1024,1024,1024,1024,0,0,0,0,335.5,0,0,84,,,,,,,9.366,85.64,1487.4854977308,2.952756,11,AutoTakeoff,
288800,2023-10-24 11:27:12,48.3682386583017,14.5120741320123,2.952756,2.952756,1484.5327417308,1487.4854977308,3.28084,0,0.077811354196,0.47667652444,21,5,23.871,1487.4854977308,2.952756,0.223694,0.192370741064,0,0,-1.11847,343.7, -1.3, -0.6,0,0,1024,1024,1024,1024,0,0,0,0,335.5,0,0,84,,,,,,,9.366,85.64,1487.4854977308,2.952756,11,AutoTakeoff,
288900,2023-10-24 11:27:12,48.3682386361064,14.5120741287629,3.28084,3.28084,1484.5327417308,1487.8135817308,3.28084,0,0.075988191408,0.48481300764,21,5,23.871,1487.8135817308,3.28084,0.223694,0.192370741064,0,0,-0.894776,343.7, -1.3, -0.4,0,0,1024,1024,1024,1024,0,0,0,0,335.5,0,0,84,,,,,,,9.366,85.64,1487.8135817308,3.28084,11,AutoTakeoff,
288900,2023-10-24 11:27:12,48.3682386317547,14.5120741276024,3.28084,3.28084,1484.5327417308,1487.8135817308,3.28084,0,0.075851052296,0.48642718092,21,5,23.871,1487.8135817308,3.28084,0.223694,0.192370741064,0,0,-0.894776,343.7, -1.3, -0.4,0,0,1024,1024,1024,1024,0,0,0,0,335.5,0,0,84,,,,,,,9.366,85.64,1487.8135817308,3.28084,11,AutoTakeoff,
289000,2023-10-24 11:27:12,48.3682386186696,14.5120741147723,3.28084,3.28084,1484.5327417308,1487.8135817308,3.608924,0,0.077870409316,0.49212271916,21,5,23.871,1487.8135817308,3.28084,0.223694,0.192370741064,0,0,-1.11847,343.8, -1.2, 0,0,0,1024,1024,1024,1024,0,0,0,0,335.5,0,0,84,,,,,,,9.366,85.64,1487.8135817308,3.28084,11,AutoTakeoff,
289100,2023-10-24 11:27:12,48.3682386115852,14.5120740923617,3.608924,3.608924,1484.5327417308,1488.1416657308,3.608924,0,0.0828248058,0.49813977972,21,5,23.871,1488.1416657308,3.608924,0.223694,0.192370741064,0,0,-0.894776,343.8, -1, 0.2,0,0,1024,1024,1024,1024,0,0,0,0,335.5,0,0,84,,,,,,,9.366,85.64,1488.1416657308,3.608924,11,AutoTakeoff,
289100,2023-10-24 11:27:12,48.3682386113754,14.5120740906983,3.608924,3.608924,1484.5327417308,1488.1416657308,3.608924,0,0.08321358534,0.49854988472,21,5,23.845,1488.1416657308,3.608924,0.223694,0.192370741064,0,0,-0.894776,343.8, -0.8, 0.2,0,0,1024,1024,1024,1024,0,0,0,0,335.5,0,0,84,,,,,,,9.54,85.64,1488.1416657308,3.608924,6,P-GPS,
289200,2023-10-24 11:27:13,48.368238621051,14.5120740848958,3.608924,3.608924,1484.5327417308,1488.1416657308,3.937008,0,0.085151577528,0.50234909744,21,5,23.845,1488.1416657308,3.608924,0.223694,0.192370741064,0,0,-0.671082,343.9, -0.3, 0,0,0,1024,1024,1024,1024,0,0,0,0,335.5,0,0,84,,,,,,,9.54,85.64,1488.1416657308,3.608924,6,P-GPS,
289300,2023-10-24 11:27:13,48.3682386401754,14.512074095379,3.608924,3.608924,1484.5327417308,1488.1416657308,3.937008,0,0.084185042064,0.5097769192,21,5,23.845,1488.1416657308,3.608924,0.223694,0.192370741064,0,0,-0.223694,343.8, -0.2, -0.2,0,0,1024,1024,1024,1024,0,0,0,0,335.5,0,0,84,,,,,,,9.54,85.64,1488.1416657308,3.608924,6,P-GPS,
289300,2023-10-24 11:27:13,48.3682386449168,14.5120740995826,3.608924,3.608924,1484.5327417308,1488.1416657308,3.937008,0,0.083672246772,0.51178479328,21,5,23.845,1488.1416657308,3.608924,0.223694,0.192370741064,0,0,-0.223694,343.8, -0.3, -0.3,0,0,1024,1024,1024,1024,0,0,0,0,335.5,0,0,84,,,,,,,9.54,85.64,1488.1416657308,3.608924,6,P-GPS,
289400,2023-10-24 11:27:13,48.3682386573551,14.5120741213485,3.608924,3.608924,1484.5327417308,1488.1416657308,3.937008,0,0.080101052432,0.51874345492,21,5,23.845,1488.1416657308,3.608924,0.223694,0.192370741064,0,0,-0.223694,343.8, -0.4, -0.6,0,0,1024,1024,1024,1024,0,0,0,0,335.5,0,0,84,,,,,,,9.54,85.64,1488.1416657308,3.608924,6,P-GPS,
289500,2023-10-24 11:27:13,48.3682386632145,14.5120741444555,3.937008,3.937008,1484.5327417308,1488.4697497308,3.937008,0,0.07571030426,0.5247375496,21,5,23.845,1488.4697497308,3.937008,0.223694,0.192370741064,0,0,0,343.8, -0.5, -0.7,0,0,1024,1024,1024,1024,0,0,0,0,335.5,0,0,84,,,,,,,9.54,85.64,1488.4697497308,3.937008,6,P-GPS,
289500,2023-10-24 11:27:13,48.3682386651248,14.5120741520503,3.937008,3.937008,1484.5327417308,1488.4697497308,3.937008,0,0.074313650672,0.5267060536,20,5,23.845,1488.4697497308,3.937008,0.223694,0.192370741064,0,0,0,343.8, -0.5, -0.7,0,0,1024,1024,1024,1024,0,0,0,0,335.5,0,0,84,,,,,,,9.54,85.64,1488.4697497308,3.937008,6,P-GPS,
289600,2023-10-24 11:27:13,48.3682386762696,14.5120741709279,3.937008,3.937008,1484.5327417308,1488.4697497308,3.937008,0,0.072063978684,0.53282810104,20,5,23.845,1488.4697497308,3.937008,0.223694,0.192370741064,0,0,0,343.7, -0.9, -0.6,0,0,1024,1024,1024,1024,0,0,0,0,335.5,0,0,84,,,,,,,9.54,85.64,1488.4697497308,3.937008,6,P-GPS,
289700,2023-10-24 11:27:13,48.3682386850373,14.5120741814369,3.937008,3.937008,1484.5327417308,1488.4697497308,3.937008,0,0.071504923548,0.53691602768,20,5,23.845,1488.4697497308,3.937008,0.223694,0.192370741064,0,0,0,343.7, -0.7, -0.5,0,0,1024,1024,1024,1024,0,0,0,0,335.5,0,0,84,,,,,,,9.54,85.64,1488.4697497308,3.937008,6,P-GPS,
289700,2023-10-24 11:27:13,48.3682386890591,14.512074184854,3.937008,3.937008,1484.5327417308,1488.4697497308,3.937008,0,0.071608598092,0.53860237944,21,5,23.845,1488.4697497308,3.937008,0.223694,0.192370741064,0,0,0,343.7, -0.4, -0.5,0,0,1024,1024,1024,1024,0,0,0,0,335.5,0,0,84,,,,,,,9.54,85.64,1488.4697497308,3.937008,6,P-GPS,
289800,2023-10-24 11:27:13,48.3682387093742,14.5120742030739,3.937008,3.937008,1484.5327417308,1488.4697497308,3.937008,0,0.072551183424,0.5472277078,21,5,23.845,1488.4697497308,3.937008,0.223694,0.192370741064,0,0,0,343.8, 0.7, -0.6,0,0,1024,1024,1024,1024,0,0,0,0,335.5,0,0,84,,,,,,,9.54,85.64,1488.4697497308,3.937008,14,Waypoint,
289900,2023-10-24 11:27:13,48.3682387267938,14.5120742330278,3.937008,3.937008,1484.5327417308,1488.4697497308,3.937008,0,0.071789044292,0.55687665824,21,5,23.845,1488.4697497308,3.937008,0.223694,0.192370741064,0,0,0,343.8, 1.4, -0.8,0,0,1024,1024,1024,1024,0,0,0,0,335.5,0,0,84,,,,,,,9.54,85.64,1488.4697497308,3.937008,14,Waypoint,
289900,2023-10-24 11:27:13,48.3682387285671,14.5120742394364,3.937008,3.937008,1484.5327417308,1488.4697497308,3.937008,0,0.071250986532,0.55855972916,21,5,23.845,1488.4697497308,3.937008,0.223694,0.192370741064,0,0,0,343.8, 1.5, -0.8,0,0,1024,1024,1024,1024,0,0,0,0,335.5,0,0,84,,,,,,,9.54,85.64,1488.4697497308,3.937008,14,Waypoint,
290000,2023-10-24 11:27:13,48.3682387267853,14.5120742933741,3.937008,3.937008,1484.5327417308,1488.4697497308,4.265092,0,0.062966865532,0.57165028076,21,5,23.845,1488.4697497308,3.937008,0.223694,0.192370741064,0,0,0,343.8, 1.3, -0.8,0,0,1024,1024,1024,1024,0,0,0,0,335.5,0,0,84,,,,,,,9.54,85.64,1488.4697497308,3.937008,14,Waypoint,
290100,2023-10-24 11:27:13,48.3682387140214,14.51207434668,3.937008,3.937008,1484.5327417308,1488.4697497308,4.265092,0,0.052867127676,0.585383877,21,5,23.845,1488.4697497308,3.937008,0.223694,0.192370741064,0,0,0,343.8, 0.9, -0.7,0,0,1024,1024,1024,1024,0,0,0,0,335.5,0,0,84,,,,,,,9.54,85.64,1488.4697497308,3.937008,14,Waypoint,
290100,2023-10-24 11:27:14,48.3682387088645,14.5120743609284,3.937008,3.937008,1484.5327417308,1488.4697497308,4.265092,0,0.049859581648,0.58931760416,21,5,23.844,1488.4697497308,3.937008,0.223694,0.192370741064,0,0,0,343.8, 0.7, -0.7,0,0,1024,1024,1024,1024,0,0,0,0,335.5,0,0,84,,,,,,,9.243,85.64,1488.4697497308,3.937008,14,Waypoint,
290200,2023-10-24 11:27:14,48.3682386821761,14.5120744366192,3.937008,3.937008,1484.5327417308,1488.4697497308,4.265092,0,0.037183072056,0.6100886022,21,5,23.844,1488.4697497308,3.937008,0.223694,0.192370741064,0,0,-0.223694,343.7, 0, -0.5,0,0,1024,1024,1024,1024,0,0,0,0,335.5,0,0,84,,,,,,,9.243,85.64,1488.4697497308,3.937008,14,Waypoint,
290300,2023-10-24 11:27:14,48.368238660409,14.5120745057079,3.937008,3.9041996,1484.5655501308,1488.4697497308,4.265092,0,0.034395014224,0.62862206736,21,5,23.844,1488.4697497308,3.937008,0.223694,0.192370741064,0,0,-0.223694,343.7, -0.5, -0.4,0,0,1024,1024,1024,1024,0,0,0,0,335.5,0,0,84,,,,,,,9.243,85.64,1488.4697497308,3.937008,14,Waypoint,
290300,2023-10-24 11:27:14,48.3682386537659,14.5120745295757,3.937008,3.9041996,1484.5655501308,1488.4697497308,4.265092,0,0.035927494588,0.63489503344,20,5,23.844,1488.4697497308,3.937008,0.223694,0.192370741064,0,0,-0.223694,343.7, -0.6, -0.5,0,0,1024,1024,1024,1024,0,0,0,0,335.5,0,0,84,,,,,,,9.243,85.64,1488.4697497308,3.937008,14,Waypoint,
290400,2023-10-24 11:27:14,48.368238631609,14.5120746341759,3.937008,3.9041996,1484.5655501308,1488.4697497308,4.265092,0,0.052721786464,0.66150592668,20,5,23.844,1488.4697497308,3.937008,0.223694,0.192370741064,0,0,-0.671082,343.7, -0.8, -0.6,0,0,1024,1024,1024,1024,0,0,0,0,335.5,0,0,84,,,,,,,9.243,85.64,1488.4697497308,3.937008,14,Waypoint,
290500,2023-10-24 11:27:14,48.3682386186396,14.512074728641,4.265092,4.2322836,1484.5655501308,1488.7978337308,4.265092,0,0.073528217576,0.68488519252,20,5,23.844,1488.7978337308,4.265092,0.223694,0.192370741064,0,0,-0.894776,343.7, -0.9, -0.9,0,0,1024,1024,1024,1024,0,0,0,0,335.5,0,0,84,,,,,,,9.243,85.64,1488.7978337308,4.265092,14,Waypoint,
290500,2023-10-24 11:27:14,48.3682386175602,14.5120747402461,4.265092,4.2322836,1484.5655501308,1488.7978337308,4.265092,0,0.07622047488,0.68772639996,20,5,23.844,1488.7978337308,4.265092,0.223694,0.192370741064,0,0,-0.894776,343.7, -0.9, -0.9,0,0,1024,1024,1024,1024,0,0,0,0,335.5,0,0,84,,,,,,,9.243,85.64,1488.7978337308,4.265092,14,Waypoint,
290600,2023-10-24 11:27:14,48.3682386128745,14.5120748494626,4.265092,4.2322836,1484.5655501308,1488.7978337308,4.593176,0,0.1021653576,0.71425199136,20,5,23.844,1488.7978337308,4.265092,0.223694,0.192370741064,0,0,-1.11847,343.7, -0.8, -1.4,0,0,1024,1024,1024,1024,0,0,0,0,335.5,0,0,84,,,,,,,9.243,85.64,1488.7978337308,4.265092,14,Waypoint,
290700,2023-10-24 11:27:14,48.3682386146177,14.5120749324129,4.593176,4.5603676,1484.5655501308,1489.1259177308,4.92126,0,0.122220804436,0.73437010224,20,5,23.844,1489.1259177308,4.593176,0.223694,0.192370741064,0,0,-1.565858,343.7, -0.8, -1.7,0,0,1024,1024,1024,1024,0,0,0,0,335.5,0,0,84,,,,,,,9.243,85.64,1489.1259177308,4.593176,14,Waypoint,
290700,2023-10-24 11:27:14,48.3682386159712,14.5120749550041,4.593176,4.5603676,1484.5655501308,1489.1259177308,4.92126,0,0.12771817994,0.73986550924,21,5,23.844,1489.1259177308,4.593176,0.223694,0.192370741064,0,0,-1.565858,343.7, -0.8, -1.7,0,0,1024,1024,1024,1024,0,0,0,0,335.5,0,0,84,,,,,,,9.243,85.64,1489.1259177308,4.593176,14,Waypoint,
290800,2023-10-24 11:27:14,48.3682386276942,14.5120750224552,4.92126,4.8884516,1484.5655501308,1489.4540017308,5.249344,0,0.144441277588,0.75676511608,21,5,23.844,1489.4540017308,4.92126,0.223694,0.192370741064,0,0,-2.013246,343.7, -0.8, -1.7,0,0,1024,1024,1024,1024,0,0,0,0,335.5,0,0,84,,,,,,,9.243,85.64,1489.4540017308,4.92126,14,Waypoint,
290900,2023-10-24 11:27:14,48.3682386394815,14.5120750424159,5.249344,5.2165356,1484.5655501308,1489.7820857308,5.249344,0,0.149804466736,0.7632382134,21,5,23.844,1489.7820857308,5.249344,0.223694,0.192370741064,0,0,-2.460634,343.7, -0.7, -1.7,0,0,1024,1024,1024,1024,0,0,0,0,335.5,0,0,84,,,,,,,9.243,85.64,1489.7820857308,5.249344,14,Waypoint,
290900,2023-10-24 11:27:14,48.3682386431179,14.5120750448014,5.249344,5.2165356,1484.5655501308,1489.7820857308,5.577428,0,0.150572839464,0.76468834468,20,5,23.844,1489.7820857308,5.249344,0.223694,0.192370741064,0,0,-2.460634,343.7, -0.7, -1.7,0,0,1024,1024,1024,1024,0,0,0,0,335.5,0,0,84,,,,,,,9.243,85.64,1489.7820857308,5.249344,14,Waypoint,
291000,2023-10-24 11:27:14,48.3682386666239,14.5120750428028,5.577428,5.5446196,1484.5655501308,1490.1101697308,5.905512,0,0.151639768632,0.7732775838,20,5,23.844,1490.1101697308,5.577428,0.223694,0.192370741064,0,0,-2.908022,343.7, -0.3, -2.1,0,0,1024,1024,1024,1024,0,0,0,0,335.5,0,0,84,,,,,,,9.243,85.64,1490.1101697308,5.577428,14,Waypoint,
291100,2023-10-24 11:27:14,48.3682386843691,14.5120750173361,6.233596,6.2007876,1484.5655501308,1490.7663377308,6.233596,0,0.147143049328,0.78222115364,20,5,23.844,1490.7663377308,6.233596,0.223694,0.192370741064,0,0,-3.35541,343.7, 0, -2.5,0,0,1024,1024,1024,1024,0,0,0,0,335.5,0,0,84,,,,,,,9.243,85.64,1490.7663377308,6.233596,14,Waypoint,
291100,2023-10-24 11:27:15,48.3682386875429,14.5120750063242,6.233596,6.2007876,1484.5655501308,1490.7663377308,6.56168,0,0.144874348468,0.78513125872,20,5,23.731,1490.7663377308,6.233596,0.223694,0.192370741064,0,0,-3.579104,343.6, 0, -2.5,0,0,1024,1024,1024,1024,0,0,0,0,335.5,0,0,84,,,,,,,12.525,85.64,1490.7663377308,6.233596,14,Waypoint,
291200,2023-10-24 11:27:15,48.3682386909052,14.5120749473318,6.889764,6.8569556,1484.5655501308,1491.4225057308,6.889764,0,0.131534124944,0.79948165288,20,5,23.731,1491.4225057308,6.889764,0.223694,0.192370741064,0,0,-4.250186,343.7, 0.2, -2.2,0,0,1024,1024,1024,1024,0,0,0,0,335.5,0,0,84,,,,,,,12.525,85.64,1491.4225057308,6.889764,14,Waypoint,
291300,2023-10-24 11:27:15,48.3682386783941,14.5120748830656,7.217848,7.1850396,1484.5655501308,1491.7505897308,7.545932,0,0.115308730724,0.8157152492,20,5,23.731,1491.7505897308,7.217848,0.223694,0.192370741064,0,0,-4.697574,343.7, 0.3, -1.7,0,0,1024,1024,1024,1024,0,0,0,0,335.5,0,0,84,,,,,,,12.525,85.64,1491.7505897308,7.217848,14,Waypoint,
291300,2023-10-24 11:27:15,48.3682386718794,14.5120748591205,7.545932,7.5131236,1484.5655501308,1492.0786737308,7.545932,0,0.109054793516,0.82198821528,20,5,23.731,1492.0786737308,7.545932,0.223694,0.192370741064,0,0,-4.697574,343.7, 0.3, -1.6,0,0,1024,1024,1024,1024,0,0,0,0,335.5,0,0,84,,,,,,,12.525,85.64,1492.0786737308,7.545932,14,Waypoint,
291400,2023-10-24 11:27:15,48.3682386418372,14.5120747506777,8.2021,8.1692916,1484.5655501308,1492.7348417308,8.530184,0,0.080711288672,0.85046590648,20,5,23.731,1492.7348417308,8.2021,0.223694,0.192370741064,0,0,-5.368656,343.6, 0, -1.5,0,0,1024,1024,1024,1024,0,0,0,0,335.5,0,0,84,,,,,,,12.525,85.64,1492.7348417308,8.2021,14,Waypoint,
291500,2023-10-24 11:27:15,48.3682386116024,14.5120746291084,9.186352,9.1535436,1484.5655501308,1493.7190937308,9.186352,0,0.04939796746,0.88192916208,20,5,23.731,1493.7190937308,9.186352,0.223694,0.192370741064,0,0,-6.039738,343.7, -0.3, -1.6,0,0,1024,1024,1024,1024,0,0,0,0,335.5,0,0,84,,,,,,,12.525,85.64,1493.7190937308,9.186352,14,Waypoint,
291500,2023-10-24 11:27:15,48.3682386032759,14.5120745965626,9.186352,9.1535436,1484.5655501308,1493.7190937308,9.514436,0,0.04103674672,0.89038388676,21,5,23.731,1493.7190937308,9.186352,0.223694,0.192370741064,0,0,-6.039738,343.7, -0.4, -1.7,0,0,1024,1024,1024,1024,0,0,0,0,335.5,0,0,84,,,,,,,12.525,85.64,1493.7190937308,9.186352,14,Waypoint,
291600,2023-10-24 11:27:15,48.3682385688178,14.5120744592103,10.170604,10.170604,1484.5327417308,1494.7033457308,10.170604,0,0.008063648552,0.9259678774,21,5,23.731,1494.7033457308,10.170604,0.223694,0.192370741064,0,0,-6.71082,343.7, -0.8, -1.8,0,0,1024,1024,1024,1024,0,0,0,0,335.5,0,0,84,,,,,,,12.525,85.64,1494.7033457308,10.170604,14,Waypoint,
291700,2023-10-24 11:27:15,48.3682385307919,14.5120743045279,11.154856,11.154856,1484.5327417308,1495.6875977308,11.154856,0,0.035548885652,0.9659449128,21,5,23.731,1495.6875977308,11.154856,0.223694,0.192370741064,0,0,-7.381902,343.7, -0.8, -1.8,0,0,1024,1024,1024,1024,0,0,0,0,335.5,0,0,84,,,,,,,12.525,85.64,1495.6875977308,11.154856,14,Waypoint,
291700,2023-10-24 11:27:15,48.3682385244399,14.5120742744063,11.154856,11.154856,1484.5327417308,1495.6875977308,11.48294,0,0.043048557808,0.9736056742,21,5,23.731,1495.6875977308,11.154856,0.223694,0.192370741064,0,0,-7.381902,343.7, -0.8, -1.8,0,0,1024,1024,1024,1024,0,0,0,0,335.5,0,0,84,,,,,,,12.525,85.64,1495.6875977308,11.154856,14,Waypoint,
291800,2023-10-24 11:27:15,48.3682384878488,14.5120740461736,12.467192,12.5000004,1484.4999333308,1496.9999337308,12.467192,0,0.099149937556,1.03051512484,21,5,23.731,1496.9999337308,12.467192,0.223694,0.192370741064,0,0,-8.052984,343.6, -0.6, -1.7,0,0,1024,1024,1024,1024,0,0,0,0,335.5,0,0,84,,,,,,,12.525,85.64,1496.9999337308,12.467192,14,Waypoint,
291900,2023-10-24 11:27:15,48.3682384587876,14.5120738274312,13.451444,13.4842524,1484.4999333308,1497.9841857308,13.451444,0.223694,0.152826776544,1.08458336804,21,5,23.731,1497.9841857308,13.451444,0.223694,0.192370741064,0,-0.223694,-8.500372,343.7, -0.3, -1.6,0,0,1024,1024,1024,1024,0,0,0,0,335.5,0,0,84,,,,,,,12.525,85.64,1497.9841857308,13.451444,14,Waypoint,
291900,2023-10-24 11:27:15,48.3682384494502,14.5120737549383,13.779528,13.8123364,1484.4999333308,1498.3122697308,13.779528,0.223694,0.170640425408,1.10248363108,21,5,23.731,1498.3122697308,13.779528,0.223694,0.192370741064,0,-0.223694,-8.724066,343.7, -0.2, -1.6,0,0,1024,1024,1024,1024,0,0,0,0,335.5,0,0,84,,,,,,,12.525,85.64,1498.3122697308,13.779528,14,Waypoint,
292000,2023-10-24 11:27:15,48.3682384159602,14.5120734765459,15.091864,15.1246724,1484.4999333308,1499.6246057308,15.091864,0.223694,0.23894849846,1.17105646792,21,5,23.731,1499.6246057308,15.091864,0.223694,0.23894849846,0,-0.223694,-9.171454,343.7, 0.3, -1.2,0,0,1024,1024,1024,1024,0,0,0,0,335.5,0,0,84,,,,,,,12.525,85.64,1499.6246057308,15.091864,14,Waypoint,
292100,2023-10-24 11:27:15,48.368238378234,14.5120732225886,16.076116,16.1089244,1484.4999333308,1500.6088577308,16.4042,0.223694,0.301995744572,1.23413389776,21,5,23.731,1500.6088577308,16.076116,0.223694,0.301995744572,0,-0.223694,-9.618842,343.7, 0.7, -0.6,0,0,1024,1024,1024,1024,0,0,0,0,335.5,0,0,84,,,,,,,12.525,85.64,1500.6088577308,16.076116,14,Waypoint,
292100,2023-10-24 11:27:16,48.3682383636841,14.512073137962,16.4042,16.4370084,1484.4999333308,1500.9369417308,16.4042,0.223694,0.323183081208,1.25532156248,21,5,23.583,1500.9369417308,16.4042,0.223694,0.323183081208,0,-0.223694,-9.842536,343.7, 0.7, -0.5,0,0,1024,1024,1024,1024,0,0,0,0,335.5,0,0,84,,,,,,,15.873,85.64,1500.9369417308,16.4042,14,Waypoint,
292200,2023-10-24 11:27:16,48.3682382981817,14.5120728317304,17.716536,17.7493444,1484.4999333308,1502.2492777308,18.04462,0.223694,0.40103019656,1.3333005676,21,5,23.583,1502.2492777308,17.716536,0.223694,0.40103019656,0,0,-10.513618,343.6, 1, -0.1,0,0,1024,1024,1024,1024,0,0,0,0,335.5,0,0,84,,,,,,,15.873,85.64,1502.2492777308,17.716536,14,Waypoint,
292300,2023-10-24 11:27:16,48.3682382115717,14.5120725406627,19.356956,19.3897644,1484.4999333308,1503.8896977308,19.356956,0.223694,0.47749017276,1.41060371968,21,5,23.583,1503.8896977308,19.356956,0.223694,0.47749017276,0,0,-10.961006,343.7, 1.1, 0,0,0,1024,1024,1024,1024,0,0,0,0,335.5,0,0,84,,,,,,,15.873,85.64,1503.8896977308,19.356956,14,Waypoint,
292300,2023-10-24 11:27:16,48.3682382010309,14.5120725098835,19.356956,19.3897644,1484.4999333308,1503.8896977308,19.68504,0,0.48573492368,1.4189961084,20,5,23.583,1503.8896977308,19.356956,0.223694,0.48573492368,0,0,-10.961006,343.7, 1.1, 0.1,0,0,1024,1024,1024,1024,0,0,0,0,335.5,0,0,84,,,,,,,15.873,85.64,1503.8896977308,19.356956,14,Waypoint,
292400,2023-10-24 11:27:16,48.3682380805411,14.5120722120333,20.997376,21.0629928,1484.4671249308,1505.5301177308,21.32546,0,0.56787075308,1.50352038932,20,5,23.583,1505.5301177308,20.997376,0.223694,0.56787075308,0,0,-11.1847,343.8, 1, 0.6,0,0,1024,1024,1024,1024,0,0,0,0,335.5,0,0,84,,,,,,,15.873,85.64,1505.5301177308,20.997376,14,Waypoint,
292500,2023-10-24 11:27:16,48.3682379620944,14.5120719853479,22.637796,22.7034128,1484.4671249308,1507.1705377308,22.637796,0,0.63421261872,1.5734252472,20,5,23.583,1507.1705377308,22.637796,0.223694,0.63421261872,0,0,-11.408394,343.9, 0.7, 1.3,0,0,1024,1024,1024,1024,0,0,0,0,335.5,0,0,84,,,,,,,15.873,85.64,1507.1705377308,22.637796,14,Waypoint,
292500,2023-10-24 11:27:16,48.3682379320009,14.5120719328157,22.96588,23.0314968,1484.4671249308,1507.4986217308,22.637796,0,0.65004267172,1.5902395522,21,5,23.583,1507.4986217308,22.96588,0.223694,0.65004267172,0,0,-11.408394,343.9, 0.6, 1.4,0,0,1024,1024,1024,1024,0,0,0,0,335.5,0,0,84,,,,,,,15.873,85.64,1507.4986217308,22.96588,14,Waypoint,
292600,2023-10-24 11:27:16,48.3682377812506,14.5120716934937,24.6063,24.6719168,1484.4671249308,1509.1390417308,24.278216,0,0.72471459012,1.6701772188,21,5,23.583,1509.1390417308,24.6063,0.223694,0.72471459012,0,0,-11.408394,343.8, 0.1, 1.6,0,0,1024,1024,1024,1024,0,0,0,0,335.5,0,0,84,,,,,,,15.873,85.64,1509.1390417308,24.6063,14,Waypoint,
292700,2023-10-24 11:27:16,48.3682376679908,14.5120715403843,26.24672,26.3123368,1484.4671249308,1510.7794617308,25.590552,0,0.77565291196,1.72571855916,21,5,23.583,1510.7794617308,26.24672,0.223694,0.77565291196,0,0,-11.408394,343.8, 0, 1.3,0,0,1024,1024,1024,1024,0,0,0,0,335.5,0,0,84,,,,,,,15.873,85.64,1510.7794617308,26.24672,14,Waypoint,
292700,2023-10-24 11:27:16,48.3682376404201,14.512071506691,26.574804,26.6404208,1484.4671249308,1511.1075457308,25.918636,0,0.78736551076,1.73867459632,22,5,23.583,1511.1075457308,26.574804,0.223694,0.78736551076,0,0,-11.408394,343.8, -0.1, 1.2,0,0,1024,1024,1024,1024,0,0,0,0,335.5,0,0,84,,,,,,,15.873,85.64,1511.1075457308,26.574804,14,Waypoint,
292800,2023-10-24 11:27:16,48.3682375138953,14.5120713639746,28.215224,28.3136492,1484.4343165308,1512.7479657308,27.559056,0,0.8390256174,1.7963583252,22,5,23.583,1512.7479657308,28.215224,0.223694,0.8390256174,0,0,-11.408394,343.8, -0.2, 0.7,0,0,1024,1024,1024,1024,0,0,0,0,335.5,0,0,84,,,,,,,15.873,85.64,1512.7479657308,28.215224,14,Waypoint,
292900,2023-10-24 11:27:16,48.3682374167188,14.5120712695868,29.52756,29.6587936,1484.4015081308,1514.0603017308,28.871392,0,0.87598428,1.83855320844,22,5,23.583,1514.0603017308,29.52756,0.223694,0.87598428,0,0,-11.408394,343.9, -0.3, 0.5,0,0,1024,1024,1024,1024,0,0,0,0,335.5,0,0,84,,,,,,,15.873,85.64,1514.0603017308,29.52756,14,Waypoint,
292900,2023-10-24 11:27:16,48.3682374050558,14.5120712592325,29.855644,29.9868776,1484.4015081308,1514.3883857308,29.199476,0,0.88024609116,1.84349415348,23,5,23.583,1514.3883857308,29.855644,0.223694,0.88024609116,0,0,-11.408394,343.9, -0.3, 0.5,0,0,1024,1024,1024,1024,0,0,0,0,335.5,0,0,84,,,,,,,15.873,85.64,1514.3883857308,29.855644,14,Waypoint,
293000,2023-10-24 11:27:16,48.3682372972785,14.5120711692289,31.16798,31.2992136,1484.4015081308,1515.7007217308,30.839896,0.223694,0.91875987192,1.88846462736,23,5,23.583,1515.7007217308,31.16798,0.223694,0.91875987192,0,0.223694,-11.1847,343.9, -0.4, 0.3,0,0,1024,1024,1024,1024,0,0,0,0,335.5,0,0,84,,,,,,,15.873,85.64,1515.7007217308,31.16798,14,Waypoint,
293100,2023-10-24 11:27:16,48.3682372027575,14.5120710982704,32.8084,32.9396336,1484.4015081308,1517.3411417308,32.152232,0.223694,0.951361579,1.927001374,23,5,23.583,1517.3411417308,32.8084,0.223694,0.951361579,0,0.223694,-11.1847,343.8, -0.5, 0.3,0,0,1024,1024,1024,1024,0,0,0,0,335.5,0,0,84,,,,,,,15.873,85.64,1517.3411417308,32.8084,14,Waypoint,
293100,2023-10-24 11:27:16,48.368237192675,14.5120710913074,32.8084,32.9396336,1484.4015081308,1517.3411417308,32.480316,0.223694,0.9547408442,1.93104664972,23,5,23.583,1517.3411417308,32.8084,0.223694,0.9547408442,0,0.223694,-11.1847,343.9, -0.5, 0.3,0,0,1024,1024,1024,1024,0,0,0,0,335.5,0,0,84,,,,,,,15.873,85.64,1517.3411417308,32.8084,14,Waypoint,
293200,2023-10-24 11:27:17,48.3682370892108,14.5120710196526,34.776904,34.9081376,1484.4015081308,1519.3096457308,34.120736,0.223694,0.98974412616,1.97260176916,23,5,23.583,1519.3096457308,34.776904,0.223694,0.98974412616,0,0.223694,-11.1847,343.8, -0.8, 0.6,0,0,1024,1024,1024,1024,0,0,0,0,335.5,0,0,84,,,,,,,15.873,85.64,1519.3096457308,34.776904,14,Waypoint,
293300,2023-10-24 11:27:17,48.368237021344,14.5120709831612,36.08924,36.2204736,1484.4015081308,1520.6219817308,35.433072,0.223694,1.01086617408,1.99889442092,23,5,23.583,1520.6219817308,36.08924,0.223694,1.01086617408,0,0.223694,-11.1847,343.8, -1, 1,0,0,1024,1024,1024,1024,0,0,0,0,335.5,0,0,84,,,,,,,15.873,85.64,1520.6219817308,36.08924,14,Waypoint,
293300,2023-10-24 11:27:17,48.3682370066613,14.5120709769589,36.417324,36.5485576,1484.4015081308,1520.9500657308,35.761156,0.223694,1.01513126608,2.00445872556,23,5,23.583,1520.9500657308,36.417324,0.223694,1.01513126608,0,0.223694,-11.1847,343.8, -1.1, 1.2,0,0,1024,1024,1024,1024,0,0,0,0,335.5,0,0,84,,,,,,,15.873,85.64,1520.9500657308,36.417324,14,Waypoint,
293400,2023-10-24 11:27:17,48.3682369527877,14.5120709561859,37.401576,37.5328096,1484.4015081308,1521.9343177308,37.401576,0.223694,1.03048887812,2.02474744012,24,5,23.583,1521.9343177308,37.401576,0.223694,1.03048887812,0,0.223694,-11.1847,343.8, -1.1, 1.7,0,0,1024,1024,1024,1024,0,0,0,0,335.5,0,0,84,,,,,,,15.873,85.64,1521.9343177308,37.401576,14,Waypoint,
293500,2023-10-24 11:27:17,48.3682369143077,14.5120709460379,38.713912,38.8451456,1484.4015081308,1523.2466537308,38.713912,0.223694,1.04063651624,2.03900268992,24,5,23.583,1523.2466537308,38.713912,0.223694,1.04063651624,0,0.223694,-11.1847,343.8, -1, 2,0,0,1024,1024,1024,1024,0,0,0,0,335.5,0,0,84,,,,,,,15.873,85.64,1523.2466537308,38.713912,14,Waypoint,
293500,2023-10-24 11:27:17,48.368236906795,14.5120709509507,39.37008,39.5013136,1484.4015081308,1523.9028217308,38.713912,0.223694,1.04127628004,2.04199153516,24,5,23.583,1523.9028217308,39.37008,0.223694,1.04127628004,0,0.223694,-11.1847,343.8, -1, 2.1,0,0,1024,1024,1024,1024,0,0,0,0,335.5,0,0,84,,,,,,,15.873,85.64,1523.9028217308,39.37008,14,Waypoint,
293600,2023-10-24 11:27:17,48.368236892198,14.5120709928965,41.0105,41.1417336,1484.4015081308,1525.5432417308,38.713912,0.223694,1.03621394392,2.05346791348,24,5,23.583,1525.5432417308,41.0105,0.223694,1.04127628004,0,0.223694,-11.1847,343.7, -1, 2.3,0,0,1024,1024,1024,1024,0,0,0,0,335.5,0,0,84,,,,,,,15.873,85.64,1525.5432417308,41.0105,14,Waypoint,
293700,2023-10-24 11:27:17,48.3682369027688,14.512071068626,41.994752,42.1259856,1484.4015081308,1526.5274937308,38.713912,0.223694,1.01918966516,2.07222447576,24,5,23.583,1526.5274937308,41.994752,0.223694,1.04127628004,0,0.223694,-11.1847,343.8, -1, 2.3,0,0,1024,1024,1024,1024,0,0,0,0,335.5,0,0,84,,,,,,,15.873,85.64,1526.5274937308,41.994752,14,Waypoint,
293700,2023-10-24 11:27:17,48.3682369102344,14.5120711013135,42.65092,42.7821536,1484.4015081308,1527.1836617308,38.713912,0.223694,1.0112205048,2.08060046028,24,5,23.583,1527.1836617308,42.65092,0.223694,1.04127628004,0,0.223694,-11.1847,343.8, -1, 2.3,0,0,1024,1024,1024,1024,0,0,0,0,335.5,0,0,84,,,,,,,15.873,85.64,1527.1836617308,42.65092,14,Waypoint,
293800,2023-10-24 11:27:17,48.3682369649133,14.5120712705023,44.29134,44.4225736,1484.4015081308,1528.8240817308,38.713912,0.4921268,0.96651249812,2.12620413628,25,5,23.583,1528.8240817308,44.29134,0.4921268,1.04127628004,0.223694,0.447388,-11.1847,343.8, -0.9, 1.9,0,0,1024,1024,1024,1024,0,0,0,0,335.5,0,0,84,,,,,,,15.873,85.64,1528.8240817308,44.29134,14,Waypoint,
293900,2023-10-24 11:27:17,48.3682370350287,14.5120714506386,45.603676,45.7349096,1484.4015081308,1530.1364177308,38.713912,0.4921268,0.91633205032,2.17681109328,25,5,23.662,1530.1364177308,45.603676,0.4921268,1.04127628004,0.223694,0.447388,-11.1847,343.8, -0.6, 1.2,0,0,1024,1024,1024,1024,0,0,0,0,335.5,0,0,84,,,,,,,12.813,85.64,1530.1364177308,45.603676,14,Waypoint,
293900,2023-10-24 11:27:17,48.3682370543801,14.5120714993927,45.93176,46.0629936,1484.4015081308,1530.4645017308,38.713912,0.4921268,0.9026739134,2.19057421708,25,5,23.662,1530.4645017308,45.93176,0.4921268,1.04127628004,0.223694,0.447388,-11.1847,343.8, -0.5, 0.9,0,0,1024,1024,1024,1024,0,0,0,0,335.5,0,0,84,,,,,,,12.813,85.64,1530.4645017308,45.93176,14,Waypoint,
294000,2023-10-24 11:27:17,48.3682371420008,14.5120717172067,47.244096,47.3425212,1484.4343165308,1531.7768377308,38.713912,0.4921268,0.84143047312,2.25229337916,26,5,23.662,1531.7768377308,47.244096,0.4921268,1.04127628004,0.223694,0.447388,-10.961006,343.8, -0.3, -0.1,0,0,1024,1024,1024,1024,0,0,0,0,335.5,0,0,84,,,,,,,12.813,85.64,1531.7768377308,47.244096,14,Waypoint,
294100,2023-10-24 11:27:17,48.3682372400339,14.5120719560258,48.884516,48.9829412,1484.4343165308,1533.4172577308,38.713912,0.4921268,0.7739173476,2.3203412816,26,5,23.662,1533.4172577308,48.884516,0.4921268,1.04127628004,0.223694,0.447388,-10.961006,343.8, -0.1, -0.5,0,0,1024,1024,1024,1024,0,0,0,0,335.5,0,0,84,,,,,,,12.813,85.64,1533.4172577308,48.884516,14,Waypoint,
294100,2023-10-24 11:27:17,48.3682372511359,14.5120719829882,48.884516,48.9829412,1484.4343165308,1533.4172577308,38.713912,0.4921268,0.76629267544,2.32802828972,26,5,23.662,1533.4172577308,48.884516,0.4921268,1.04127628004,0.223694,0.447388,-10.961006,343.8, -0.1, -0.6,0,0,1024,1024,1024,1024,0,0,0,0,335.5,0,0,84,,,,,,,12.813,85.64,1533.4172577308,48.884516,14,Waypoint,
294200,2023-10-24 11:27:18,48.3682373661946,14.5120722599493,50.524936,50.6233612,1484.4343165308,1535.0576777308,38.713912,0.4921268,0.68782154432,2.40720480144,27,5,23.662,1535.0576777308,50.524936,0.4921268,1.04127628004,0.223694,0.447388,-10.961006,343.8, 0.1, -1.2,0,0,1024,1024,1024,1024,0,0,0,0,335.5,0,0,84,,,,,,,12.813,85.64,1535.0576777308,50.524936,14,Waypoint,
294300,2023-10-24 11:27:18,48.3682374501789,14.5120724636954,51.837272,51.9356972,1484.4343165308,1536.3700137308,38.713912,0.4921268,0.6303641934,2.4653216012,27,5,23.662,1536.3700137308,51.837272,0.4921268,1.04127628004,0.223694,0.447388,-10.961006,343.8, 0.3, -1.7,0,0,1024,1024,1024,1024,0,0,0,0,335.5,0,0,84,,,,,,,12.813,85.64,1536.3700137308,51.837272,14,Waypoint,
