time(millisecond),datetime(utc),latitude,longitude,height_above_takeoff(feet),height_above_ground_at_drone_location(feet),ground_elevation_at_drone_location(feet),altitude_above_seaLevel(feet),height_sonar(feet),speed(mph),distance(feet),mileage(feet),satellites,gpslevel,voltage(v),max_altitude(feet),max_ascent(feet),max_speed(mph),max_distance(feet),xSpeed(mph),ySpeed(mph),zSpeed(mph),compass_heading(degrees),pitch(degrees),roll(degrees),isPhoto,isVideo,rc_elevator,rc_aileron,rc_throttle,rc_rudder,rc_elevator(percent),rc_aileron(percent),rc_throttle(percent),rc_rudder(percent),gimbal_heading(degrees),gimbal_pitch(degrees),gimbal_roll(degrees),battery_percent,voltageCell1,voltageCell2,voltageCell3,voltageCell4,voltageCell5,voltageCell6,current(A),battery_temperature(f),altitude(feet),ascent(feet),flycStateRaw,flycState,message
100,2023-01-19 11:40:47,46.6531738165191,14.2879939127949,0.0,0.0,1473.7754953235,1473.7754953235,0.0,0.0,0.0,0.0,20,5,0,1473.7754953235,0.0,0.0,0.0,0.0,0.0,0.0,47.6,4.6,0.1,0,0,-98,-100,-99,100,-98,-100,-99,100,47.6,0,0,99,4.255,4.237,4.241,4.253,0,0,0,52.7,1473.7754953235,0.0,41,Motors_Started,Fluggerät befindet sich in einer Warnzone (Flughafen). Bitte vorsichtig fliegen.
300,2023-01-19 11:40:47,46.6531739632642,14.2879939073073,0.0,0.0,1473.7754953235,1473.7754953235,0.0,0.0,0.053557416412,0.053557416412,20,5,0,1473.7754953235,0.0,0.0,0.053557416412,0.0,0.0,0.0,47.6,4.6,0.1,0,0,0,0,-16,48,0,0,-16,48,47.6,0,0,99,4.255,4.237,4.241,4.253,0,0,0,52.7,1473.7754953235,0.0,41,Motors_Started,Setting new Return-To-Home altitude to 70m (230 ft). Data Recorder File Index is 33. Setting new Maximum Flight Altitude to 170m (558 ft)
500,2023-01-19 11:40:48,46.6531739422108,14.2879938987247,0.0,0.0,1473.7754953235,1473.7754953235,0.0,0.0,0.045993767876,0.06153379462,20,5,0,1473.7754953235,0.0,0.0,0.053557416412,0.0,0.0,0.0,47.6,4.6,0.1,0,0,0,0,0,0,0,0,0,0,47.6,0,0,99,4.255,4.237,4.241,4.253,0,0,0,52.7,1473.7754953235,0.0,41,Motors_Started,
700,2023-01-19 11:40:48,46.6531739248683,14.2879937197884,0.0,0.0,1473.7754953235,1473.7754953235,0.0,0.0,0.0624425873,0.106790685832,20,5,0,1473.7754953235,0.0,0.0,0.0624425873,0.0,0.0,0.0,47.7,4.6,0.1,0,0,0,0,0,0,0,0,0,0,47.6,0,0,99,4.255,4.237,4.241,4.253,0,0,0,52.7,1473.7754953235,0.0,41,Motors_Started,
900,2023-01-19 11:40:48,46.6531740742398,14.2879937219194,0.0,0.0,1473.7754953235,1473.7754953235,0.0,0.0,0.10548261492400002,0.161291343744,20,5,17.053,1473.7754953235,0.0,0.0,0.10548261492400002,0.0,0.0,0.0,47.7,4.6,0.1,0,0,0,0,0,0,0,0,0,0,47.6,0,0,99,4.255,4.237,4.241,4.253,0,0,2.367,52.7,1473.7754953235,0.0,41,Motors_Started,
1100,2023-01-19 11:40:48,46.6531740485638,14.2879937258881,0.0,0.0,1473.7754953235,1473.7754953235,0.0,0.0,0.096739832492,0.17071194772,20,5,17.053,1473.7754953235,0.0,0.0,0.10548261492400002,0.0,0.0,0.0,47.6,4.6,0.1,0,0,0,0,0,0,0,0,0,0,47.6,0,0,99,4.255,4.237,4.241,4.253,0,0,2.367,52.7,1473.7754953235,0.0,41,Motors_Started,
1300,2023-01-19 11:40:48,46.6531740238754,14.2879937342202,0.0,0.0,1473.7754953235,1473.7754953235,0.0,0.0,0.087883532996,0.179958011008,20,5,17.053,1473.7754953235,0.0,0.0,0.10548261492400002,0.0,0.0,0.0,47.6,4.6,0.1,0,0,0,0,0,0,0,0,0,0,47.6,0,0,99,4.255,4.237,4.241,4.253,0,0,2.367,52.7,1473.7754953235,0.0,41,Motors_Started,
1500,2023-01-19 11:40:49,46.653174002547,14.2879937431184,0.0,0.0,1473.7754953235,1473.7754953235,0.0,0.0,0.0800771023,0.188052499456,20,5,17.053,1473.7754953235,0.0,0.0,0.10548261492400002,0.0,0.0,0.0,47.7,4.6,0.1,0,0,0,0,0,0,0,0,0,0,47.6,0,0,99,4.255,4.237,4.241,4.253,0,0,2.367,52.7,1473.7754953235,0.0,41,Motors_Started,
1700,2023-01-19 11:40:49,46.6531739883834,14.2879937489585,0.0,0.0,1473.7754953235,1473.7754953235,0.0,0.0,0.07493602602,0.193422906452,20,5,17.053,1473.7754953235,0.0,0.0,0.10548261492400002,0.0,0.0,0.0,47.7,4.6,0.1,0,0,0,0,0,0,0,0,0,0,47.6,0,0,99,4.255,4.237,4.241,4.253,0,0,2.367,52.7,1473.7754953235,0.0,10,Assisted_Takeoff,
1900,2023-01-19 11:40:49,46.6531739760305,14.2879937547273,0.0,0.0,1473.7754953235,1473.7754953235,0.0,0.0,0.070384844772,0.198155846236,20,5,17.073,1473.7754953235,0.0,0.0,0.10548261492400002,0.0,0.0,0.0,47.7,4.6,0.1,0,0,0,0,0,0,0,0,0,0,47.6,0,0,99,4.297,4.281,4.285,4.3,0,0,3.907,52.7,1473.7754953235,0.0,10,Assisted_Takeoff,
2100,2023-01-19 11:40:49,46.6531739637239,14.2879937573645,0.0,0.0,1473.7754953235,1473.7754953235,0.0,0.0,0.0663303827,0.202694232208,20,5,17.073,1473.7754953235,0.0,0.0,0.10548261492400002,0.0,0.0,0.0,47.6,4.6,0.1,0,0,0,0,27,0,0,0,27,0,47.6,0,0,99,4.297,4.281,4.285,4.3,0,0,3.907,52.7,1473.7754953235,0.0,10,Assisted_Takeoff,
2300,2023-01-19 11:40:49,46.6531739528181,14.2879937591039,0.0,0.0,1473.7754953235,1473.7754953235,0.0,0.0,0.062884188364,0.20669685700799997,20,5,17.073,1473.7754953235,0.0,0.0,0.10548261492400002,0.0,0.0,0.0,47.6,4.6,0.1,0,0,0,0,43,0,0,0,43,0,47.6,0,0,99,4.297,4.281,4.285,4.3,0,0,3.907,52.7,1473.7754953235,0.0,10,Assisted_Takeoff,
2500,2023-01-19 11:40:50,46.6531739454318,14.2879937629003,0.0,0.0,1473.7754953235,1473.7754953235,0.0,0.0,0.06017782344799999,0.209554796732,20,5,17.073,1473.7754953235,0.0,0.0,0.10548261492400002,0.0,0.0,0.0,47.6,4.5,0.1,0,0,0,0,40,0,0,0,40,0,47.6,0,0,99,4.297,4.281,4.285,4.3,0,0,3.907,52.7,1473.7754953235,0.0,10,Assisted_Takeoff,
2700,2023-01-19 11:40:50,46.6531739305692,14.2879937546938,0.0,0.0,1473.7754953235,1473.7754953235,0.0,0.0,0.05743865013200001,0.21535368143199998,20,5,17.073,1473.7754953235,0.0,0.0,0.10548261492400002,0.0,0.0,0.0,47.6,4.5,0,0,0,0,0,46,0,0,0,46,0,47.6,0,0,99,4.297,4.281,4.285,4.3,0,0,3.907,52.7,1473.7754953235,0.0,10,Assisted_Takeoff,
2900,2023-01-19 11:40:50,46.6531737388652,14.2879935455081,0.0,0.0,1473.7754953235,1473.7754953235,0.0,0.0,0.09624672224,0.302740823336,20,5,17.186,1473.7754953235,0.0,0.0,0.10548261492400002,0.0,0.0,0.0,47.6,0.8,0,0,0,0,0,65,0,0,0,65,0,47.6,0,0,99,4.252,4.228,4.229,4.237,0,0,2.053,52.7,1473.7754953235,0.0,10,Assisted_Takeoff,
3100,2023-01-19 11:40:50,46.6531737776563,14.2879935055105,0.0,0.0,1473.7754953235,1473.7754953235,0.0,0.0,0.102979990172,0.320080062736,20,5,17.186,1473.7754953235,0.0,0.0,0.10548261492400002,0.0,0.0,-0.447388,47.2,-2.7,-0.5,0,0,0,0,70,0,0,0,70,0,47.6,0,0,99,4.252,4.228,4.229,4.237,0,0,2.053,52.7,1473.7754953235,0.0,6,P-GPS,
3300,2023-01-19 11:40:50,46.6531739635075,14.2879934330185,0.328084,0.36089239999997,1473.7426869235,1474.1035793235,0.328084,0.0,0.131578744368,0.39027560304,20,5,17.186,1474.1035793235,0.328084,0.0,0.131578744368,0.0,0.0,-1.565858,47.2,1.4,0.2,0,0,0,0,61,0,0,0,61,0,47.6,0,0,99,4.252,4.228,4.229,4.237,0,0,2.053,52.7,1474.1035793235,0.328084,6,P-GPS,|Startpunkt aufgezeichnet. Höhe des Rückflugs: 70,0 m|
3500,2023-01-19 11:40:51,46.6531742043325,14.2879934378982,0.984252,1.0170604,1473.7426869235,1474.7597473235,0.984252,0.0,0.184838260508,0.4781496216,20,5,17.186,1474.7597473235,0.984252,0.0,0.184838260508,0.0,0.0,-2.684328,47.4,1.5,0.8,0,0,0,0,73,0,0,0,73,0,47.6,0,0,99,4.252,4.228,4.229,4.237,0,0,2.053,52.7,1474.7597473235,0.984252,6,P-GPS,
3700,2023-01-19 11:40:51,46.653174270345,14.287993270533,2.296588,2.3293964,1473.7426869235,1476.0720833235,2.296588,0.0,0.23084121473599997,0.52648951816,20,5,17.186,1476.0720833235,2.296588,0.0,0.23084121473599997,0.0,0.0,-4.250186,47.4,-0.5,1.2,0,0,0,0,87,0,0,0,87,0,47.6,0,0,99,4.252,4.228,4.229,4.237,0,0,2.053,52.7,1476.0720833235,2.296588,6,P-GPS,
3900,2023-01-19 11:40:51,46.6531744682869,14.2879931786737,3.608924,3.6417324,1473.7426869235,1477.3844193235,3.608924,0.0,0.30058071828,0.60228676468,20,5,16.582,1477.3844193235,3.608924,0.0,0.30058071828,0.0,0.0,-5.816044,47.3,-0.1,2.2,0,0,0,0,94,0,0,0,94,0,47.6,0,0,99,4.115,4.09,4.074,4.076,0,0,6.713,52.7,1477.3844193235,3.608924,6,P-GPS,
4100,2023-01-19 11:40:51,46.6531746908549,14.2879929307403,5.905512,5.9711287999999,1473.7098785235,1479.6810073235,5.905512,0.0,0.40280185016,0.70450789656,19,5,16.582,1479.6810073235,5.905512,0.0,0.40280185016,0.0,0.0,-7.605596,47.4,0.7,1.9,0,0,0,0,99,0,0,0,99,0,47.6,0,0,99,4.115,4.09,4.074,4.076,0,0,6.713,52.7,1479.6810073235,5.905512,6,P-GPS,
4300,2023-01-19 11:40:51,46.65317467943,14.2879924189273,9.186352,9.2519687999999,1473.7098785235,1482.9618473235,8.530184,0.0,0.48896327024,0.83275265132,20,5,16.582,1482.9618473235,9.186352,0.0,0.48896327024,0.0,0.0,-9.618842,47.4,0.4,1.3,0,0,0,0,92,0,0,0,92,0,47.6,0,0,99,4.115,4.09,4.074,4.076,0,0,6.713,52.7,1482.9618473235,9.186352,6,P-GPS,
4500,2023-01-19 11:40:52,46.6531749894761,14.2879922905801,13.779528000000003,13.8451448,1473.7098785235,1487.5550233235,11.811024,0.0,0.59007875904,0.95035108028,20,5,16.582,1487.5550233235,13.779528000000003,0.0,0.59007875904,0.0,0.0,-11.632088,47.4,0.4,0.8,0,0,0,0,67,0,0,0,67,0,47.6,0,0,99,4.115,4.09,4.074,4.076,0,0,6.713,52.7,1487.5550233235,13.779528000000003,6,P-GPS,
4700,2023-01-19 11:40:52,46.6531750616564,14.2879924038537,18.372704,18.4383208,1473.7098785235,1492.1481993235,15.419948,0.0,0.59091537324,0.9890584306000001,20,5,16.582,1492.1481993235,18.372704,0.0,0.59091537324,0.0,0.0,-12.303170000000001,47.6,0.1,1,0,0,0,0,54,0,0,0,54,0,47.6,0,0,99,4.115,4.09,4.074,4.076,0,0,6.713,52.7,1492.1481993235,18.372704,6,P-GPS,
4900,2023-01-19 11:40:52,46.653174394789,14.2879928078914,21.981628,22.0144364,1473.7426869235,1495.7571233235,18.700788,0.0,0.3479658904,1.25256565688,19,5,16.09,1495.7571233235,21.981628,0.0,0.59091537324,0.0,0.0,-11.1847,47.8,0,1,0,0,1,0,52,0,1,0,52,0,47.6,0,0,99,4.135,4.111,4.132,4.15,0,0,13.533,52.7,1495.7571233235,21.981628,6,P-GPS,
5100,2023-01-19 11:40:52,46.6531739610498,14.2879929961831,24.934384,24.9671924,1473.7426869235,1498.7098793235,21.653544,0.0,0.235532815936,1.41769361492,19,5,16.09,1498.7098793235,24.934384,0.0,0.59091537324,0.0,0.0,-9.171454,47.9,0.3,0.7,0,0,12,0,50,0,12,0,50,0,47.6,0,0,99,4.135,4.111,4.132,4.15,0,0,13.533,52.7,1498.7098793235,24.934384,6,P-GPS,
5300,2023-01-19 11:40:52,46.6531743811233,14.2879929575692,26.902888000000004,26.9356964,1473.7426869235,1500.6783833235,23.950132,0.0,0.315693579656,1.5712598928,20,5,16.09,1500.6783833235,26.902888000000004,0.0,0.59091537324,0.0,0.0,-6.934514,47.9,0.3,0.6,0,0,40,0,45,0,40,0,45,0,47.6,0,0,99,4.135,4.111,4.132,4.15,0,0,13.533,52.7,1500.6783833235,26.902888000000004,6,P-GPS,
5500,2023-01-19 11:40:53,46.6531745946522,14.2879928871871,28.543308000000003,28.608924799999997,1473.7098785235,1502.3188033235,25.590552,0.0,0.38284778128,1.65113522344,20,5,16.09,1502.3188033235,28.543308000000003,0.0,0.59091537324,0.0,0.0,-4.47388,47.9,-0.1,0.5,0,0,62,0,41,0,62,0,41,0,47.6,0,0,99,4.135,4.111,4.132,4.15,0,0,13.533,52.7,1502.3188033235,28.543308000000003,6,P-GPS,
5700,2023-01-19 11:40:53,46.6531746288147,14.2879931797502,29.52756,29.593176799999995,1473.7098785235,1503.3030553235,26.574804,0.0,0.34861877756,1.72545609196,20,5,16.09,1503.3030553235,29.52756,0.0,0.59091537324,0.0,0.0,-2.908022,47.8,-3.1,0.4,0,0,66,0,41,0,66,0,41,0,47.6,0,0,99,4.135,4.111,4.132,4.15,0,0,13.533,52.7,1503.3030553235,29.52756,6,P-GPS,
5900,2023-01-19 11:40:53,46.6531746070155,14.2879936671825,29.855644,29.9212608,1473.7098785235,1503.6311393235,27.230972,0.31317159999999994,0.294898631484,1.8477854922,20,5,16.872,1503.6311393235,29.855644,0.31317159999999994,0.59091537324,0.223694,0.223694,-2.013246,47.7,-10.2,0.1,0,0,67,0,40,0,67,0,40,0,47.6,0,0,99,4.206,4.183,4.188,4.191,0,0,6.835,52.88,1503.6311393235,29.855644,6,P-GPS,
6100,2023-01-19 11:40:53,46.6531753060874,14.287994559677,30.183728,30.2165364,1473.7426869235,1503.9592233235,28.215224,1.2750558,0.56709975568,2.18692264216,20,5,16.872,1503.9592233235,30.183728,1.2750558,0.59091537324,0.894776,0.894776,-1.789552,47.6,-14.1,0.5,0,0,57,0,48,0,57,0,48,0,47.6,0,0,99,4.206,4.183,4.188,4.191,0,0,6.835,52.88,1503.9592233235,30.183728,6,P-GPS,
6300,2023-01-19 11:40:53,46.6531765600425,14.2879962653146,30.839896,30.971129599999998,1473.6442617235,1504.6153913235,28.543308000000003,2.3711564,1.16148953848,2.81283801652,20,5,16.872,1504.6153913235,30.839896,2.3711564,1.16148953848,1.565858,1.789552,-1.789552,47.6,-14.6,0.9,0,0,0,0,82,0,0,0,82,0,47.6,0,0,99,4.206,4.183,4.188,4.191,0,0,6.835,52.88,1504.6153913235,30.839896,6,P-GPS,
6500,2023-01-19 11:40:54,46.6531781511868,14.2879994860315,31.496064,31.6272976,1473.6442617235,1505.2715593235,29.199476,3.6462122,2.10932421448,3.8066274184,20,5,16.872,1505.2715593235,31.496064,3.6462122,2.10932421448,2.460634,2.684328,-2.684328,49.1,-9.5,0.6,0,0,0,0,86,0,0,0,86,0,47.6,0,0,99,4.206,4.183,4.188,4.191,0,0,6.835,52.88,1505.2715593235,31.496064,6,P-GPS,
6700,2023-01-19 11:40:54,46.6531801522812,14.2880037121571,32.8084,33.0052504,1473.5786449235,1506.5838953235,30.183728,4.1159696,3.3713911839999997,5.0923886144,20,5,16.872,1506.5838953235,32.8084,4.1159696,3.3713911839999997,2.684328,3.131716,-4.921268,50.5,8.7,0.8,0,0,0,0,88,0,0,0,88,0,47.6,0,0,99,4.206,4.183,4.188,4.191,0,0,6.835,52.88,1506.5838953235,32.8084,6,P-GPS,
6900,2023-01-19 11:40:54,46.6531817461529,14.2880067003641,34.44882,34.7112872,1473.5130281235,1508.2243153235,33.136484,2.0579848,4.315780978,6.0401248652,20,5,16.872,1508.2243153235,34.44882,4.1159696,4.315780978,1.342164,1.565858,-7.158208,49.3,18.6,0.7,0,0,0,0,82,0,0,0,82,0,47.6,0,0,99,4.206,4.183,4.188,4.191,0,0,6.835,52.88,1508.2243153235,34.44882,6,P-GPS,
7100,2023-01-19 11:40:54,46.653181871254,14.288007364342,37.073492,37.3359592,1473.5130281235,1510.8489873235,35.761156,0.31317159999999994,4.4704397756,6.2125658156,20,5,16.578,1510.8489873235,37.073492,4.1159696,4.4704397756,0.223694,0.223694,-9.171454,49.3,5.1,0.8,0,0,0,0,78,0,0,0,78,0,47.6,0,0,99,4.036,4.009,4.019,4.017,0,0,7.357,52.88,1510.8489873235,37.073492,6,P-GPS,
7300,2023-01-19 11:40:54,46.6531816400784,14.2880075065243,40.354332,40.5839908,1473.5458365235,1514.1298273235,38.385828,0.223694,4.4426838692,6.3041012516,20,5,16.578,1514.1298273235,40.354332,4.1159696,4.4704397756,0.0,0.223694,-9.171454,50.3,-0.1,1.2,0,0,0,0,66,0,0,0,66,0,47.6,0,0,99,4.036,4.009,4.019,4.017,0,0,7.357,52.88,1514.1298273235,40.354332,6,P-GPS,
7500,2023-01-19 11:40:55,46.6531817759931,14.2880079597648,43.307088,43.5367468,1473.5458365235,1517.0825833235,40.026248,0.223694,4.561679936,6.42798577,20,5,16.578,1517.0825833235,43.307088,4.1159696,4.561679936,0.0,0.223694,-8.276678,51.4,0.2,0.9,0,0,0,0,67,0,0,0,67,0,47.6,0,0,99,4.036,4.009,4.019,4.017,0,0,7.357,52.88,1517.0825833235,43.307088,6,P-GPS,
7700,2023-01-19 11:40:55,46.6531820908012,14.2880083516348,45.275592,45.5052508,1473.5458365235,1519.0510873235,40.026248,0.223694,4.7105316468,6.5790684520000005,20,5,16.578,1519.0510873235,45.275592,4.1159696,4.7105316468,0.0,0.223694,-6.487126,51.6,1.4,0.7,0,0,0,0,61,0,0,0,61,0,47.6,0,0,99,4.036,4.009,4.019,4.017,0,0,7.357,52.88,1519.0510873235,45.275592,6,P-GPS,
7900,2023-01-19 11:40:55,46.6531820649132,14.2880087431015,46.916012,47.1456708,1473.5458365235,1520.6915073235,40.026248,0.223694,4.7802494968,6.6775592688,20,5,16.578,1520.6915073235,46.916012,4.1159696,4.7802494968,0.0,0.223694,-5.59235,51.4,2.7,0.2,0,0,0,0,54,0,0,0,54,0,47.6,0,0,99,4.036,4.009,4.019,4.017,0,0,7.357,52.88,1520.6915073235,46.916012,6,P-GPS,
8100,2023-01-19 11:40:55,46.6531819693177,14.2880087840534,48.556432,48.7860908,1473.5458365235,1522.3319273235,40.026248,0.0,4.766404352,6.713910975999999,20,5,16.36,1522.3319273235,48.556432,4.1159696,4.7802494968,0.0,0.0,-4.921268,51.4,2.3,0.6,0,0,0,0,0,0,0,0,0,0,47.6,0,0,99,4.161,4.128,4.135,4.148,0,0,12.719,53.06,1522.3319273235,48.556432,6,P-GPS,
8300,2023-01-19 11:40:55,46.6531818606874,14.2880087945771,49.540684,49.7703428,1473.5458365235,1523.3161793235,40.026248,0.0,4.7438321728,6.7536419484,20,5,16.36,1523.3161793235,49.540684,4.1159696,4.7802494968,0.0,0.0,-3.802798,51.5,1.2,1.5,0,0,0,0,0,0,0,0,0,0,47.6,0,0,99,4.161,4.128,4.135,4.148,0,0,12.719,53.06,1523.3161793235,49.540684,6,P-GPS,
8500,2023-01-19 11:40:56,46.6531816266116,14.2880086520703,50.524936,50.7545948,1473.5458365235,1524.3004313235,40.026248,0.0,4.6631563172,6.8461944448,20,5,16.36,1524.3004313235,50.524936,4.1159696,4.7802494968,0.0,0.0,-1.565858,51.5,0.4,2.1,0,0,0,0,0,0,0,0,0,0,47.6,0,0,99,4.161,4.128,4.135,4.148,0,0,12.719,53.06,1524.3004313235,50.524936,6,P-GPS,
8700,2023-01-19 11:40:56,46.653181449298,14.28800859612,50.524936,50.7217864,1473.5786449235,1524.3004313235,40.026248,0.0,4.6127298064,6.9123689876,20,5,16.36,1524.3004313235,50.524936,4.1159696,4.7802494968,0.0,0.0,-0.223694,51.3,-0.1,1.6,0,0,0,0,0,0,0,0,0,0,47.6,0,0,99,4.161,4.128,4.135,4.148,0,0,12.719,53.06,1524.3004313235,50.524936,6,P-GPS,
8900,2023-01-19 11:40:56,46.6531811568507,14.2880086929317,50.524936,50.7217864,1473.5786449235,1524.3004313235,40.026248,0.0,4.568733742,7.0217850016,20,5,16.36,1524.3004313235,50.524936,4.1159696,4.7802494968,0.0,0.0,0.0,51.3,-0.3,0.9,0,0,0,0,0,0,0,0,0,0,47.6,0,0,99,4.161,4.128,4.135,4.148,0,0,12.719,53.06,1524.3004313235,50.524936,6,P-GPS,
9100,2023-01-19 11:40:56,46.6531810836765,14.2880088259553,50.524936,50.7217864,1473.5786449235,1524.3004313235,40.026248,0.0,4.5802822988,7.0645015384,20,5,16.789,1524.3004313235,50.524936,4.1159696,4.7802494968,0.0,0.0,0.0,51.3,-0.3,0.8,0,0,0,0,0,0,0,0,0,0,47.6,0,0,99,4.18,4.155,4.161,4.168,0,0,5.782,53.24,1524.3004313235,50.524936,6,P-GPS,
9300,2023-01-19 11:40:56,46.6531810683936,14.2880089200714,50.524936,50.7217864,1473.5786449235,1524.3004313235,40.026248,0.0,4.596292798,7.0887141376,20,5,16.789,1524.3004313235,50.524936,4.1159696,4.7802494968,0.0,0.0,0.0,51.3,-0.2,0.8,0,0,0,0,0,0,0,0,0,0,47.6,0,0,99,4.18,4.155,4.161,4.168,0,0,5.782,53.24,1524.3004313235,50.524936,6,P-GPS,
9500,2023-01-19 11:40:57,46.6531808927499,14.2880087972415,50.524936,50.7217864,1473.5786449235,1524.3004313235,40.026248,0.0,4.5343833472,7.1598099404,20,5,16.789,1524.3004313235,50.524936,4.1159696,4.7802494968,0.0,0.0,0.0,51.2,0.1,1,0,0,0,0,0,0,0,0,0,0,47.6,0,0,99,4.18,4.155,4.161,4.168,0,0,5.782,53.24,1524.3004313235,50.524936,6,P-GPS,
9700,2023-01-19 11:40:57,46.6531808402891,14.2880088094414,50.524936,50.7217864,1473.5786449235,1524.3004313235,40.026248,0.0,4.5260172052,7.179166896399999,20,5,16.789,1524.3004313235,50.524936,4.1159696,4.7802494968,0.0,0.0,0.0,51.3,0.4,0.9,0,0,0,0,0,0,0,0,0,0,47.6,0,0,99,4.18,4.155,4.161,4.168,0,0,5.782,53.24,1524.3004313235,50.524936,6,P-GPS,
9900,2023-01-19 11:40:57,46.6531809061632,14.2880089239597,50.524936,50.7217864,1473.5786449235,1524.3004313235,40.026248,0.0,4.5632875476,7.216601280800001,20,5,16.789,1524.3004313235,50.524936,4.1159696,4.7802494968,0.0,0.0,0.0,51.3,0.5,1.1,0,0,0,0,0,0,0,0,0,0,47.6,0,0,99,4.18,4.155,4.161,4.168,0,0,5.782,53.24,1524.3004313235,50.524936,6,P-GPS,
10100,2023-01-19 11:40:57,46.6531807603041,14.2880089981205,50.524936,50.7217864,1473.5786449235,1524.3004313235,40.026248,0.0,4.5487534264,7.272966112000001,20,5,16.588,1524.3004313235,50.524936,4.1159696,4.7802494968,0.0,0.0,0.0,51.3,0.6,1.3,0,0,0,0,0,0,0,0,0,0,47.6,0,0,99,4.155,4.135,4.146,4.155,0,0,7.071,53.24,1524.3004313235,50.524936,6,P-GPS,
10300,2023-01-19 11:40:57,46.6531807591552,14.2880090666755,50.524936,50.7217864,1473.5786449235,1524.3004313235,40.026248,0.0,4.5627626132,7.2901249052,20,5,16.588,1524.3004313235,50.524936,4.1159696,4.7802494968,0.0,0.0,0.0,51.3,0.4,1.2,0,0,0,0,0,0,0,0,0,0,47.6,0,0,99,4.155,4.135,4.146,4.155,0,0,7.071,53.24,1524.3004313235,50.524936,6,P-GPS,RTK-Signal schwach. Zum Starten in einen offenen Bereich gehen oder RTK ausschalten
10500,2023-01-19 11:40:58,46.6531807559005,14.2880091491845,50.524936,50.7217864,1473.5786449235,1524.3004313235,40.026248,0.0,4.5793308552,7.310827005599999,20,5,16.588,1524.3004313235,50.524936,4.1159696,4.7802494968,0.0,0.0,0.0,51.4,0.4,1.2,0,0,0,0,0,0,0,0,0,0,47.6,0,0,99,4.155,4.135,4.146,4.155,0,0,7.071,53.24,1524.3004313235,50.524936,6,P-GPS,
10700,2023-01-19 11:40:58,46.6531805955932,14.2880092544428,50.524936,50.7217864,1473.5786449235,1524.3004313235,40.026248,0.0,4.56938991,7.375000236,20,5,16.588,1524.3004313235,50.524936,4.1159696,4.7802494968,0.0,0.0,0.0,51.4,0.4,1,0,0,0,0,0,0,0,0,0,0,47.6,0,0,99,4.155,4.135,4.146,4.155,0,0,7.071,53.24,1524.3004313235,50.524936,6,P-GPS,
10900,2023-01-19 11:40:58,46.6531802982615,14.2880092012209,50.524936,50.688978,1473.6114533235,1524.3004313235,40.026248,0.0,4.5002626112,7.4842850164,20,5,16.588,1524.3004313235,50.524936,4.1159696,4.7802494968,0.0,0.0,0.0,51.3,0.3,0.9,0,0,0,0,0,0,0,0,0,0,47.6,0,0,99,4.155,4.135,4.146,4.155,0,0,7.071,53.24,1524.3004313235,50.524936,6,P-GPS,
11100,2023-01-19 11:40:58,46.6531801966026,14.288009309702,50.524936,50.688978,1473.6114533235,1524.3004313235,40.026248,0.0,4.504101194,7.5302495848,20,5,16.585,1524.3004313235,50.524936,4.1159696,4.7802494968,0.0,0.0,0.0,51.3,0.4,1,0,0,0,0,0,0,0,0,0,0,47.6,0,0,99,4.155,4.134,4.146,4.155,0,0,7.38,53.42,1524.3004313235,50.524936,6,P-GPS,
11300,2023-01-19 11:40:58,46.6531801073798,14.2880095693939,50.524936,50.688978,1473.6114533235,1524.3004313235,40.026248,0.0,4.5433728488,7.602985807599999,20,5,16.585,1524.3004313235,50.524936,4.1159696,4.7802494968,0.0,0.0,0.0,51.4,0.3,0.8,0,0,0,0,0,0,0,0,0,0,47.6,0,0,99,4.155,4.134,4.146,4.155,0,0,7.38,53.42,1524.3004313235,50.524936,6,P-GPS,
11500,2023-01-19 11:40:59,46.6531798561537,14.2880096541634,50.524936,50.688978,1473.6114533235,1524.3004313235,40.026248,0.0,4.5162731104,7.697080298800001,20,5,16.585,1524.3004313235,50.524936,4.1159696,4.7802494968,0.0,0.0,0.0,51.3,0.2,0.9,0,0,0,0,0,0,0,0,0,0,47.6,0,0,99,4.155,4.134,4.146,4.155,0,0,7.38,53.42,1524.3004313235,50.524936,6,P-GPS,
11700,2023-01-19 11:40:59,46.6531797873152,14.2880097476719,50.524936,50.688978,1473.6114533235,1524.3004313235,40.026248,0.0,4.524606444,7.7313978852,20,5,16.585,1524.3004313235,50.524936,4.1159696,4.7802494968,0.0,0.0,0.0,51.3,0.2,0.9,0,0,0,0,0,0,0,0,0,0,47.6,0,0,99,4.155,4.134,4.146,4.155,0,0,7.38,53.42,1524.3004313235,50.524936,6,P-GPS,
11900,2023-01-19 11:40:59,46.653179548249,14.2880096920725,50.524936,50.688978,1473.6114533235,1524.3004313235,40.026248,0.0,4.4709319016,7.8197509064,20,5,16.585,1524.3004313235,50.524936,4.1159696,4.7802494968,0.0,0.0,0.0,51.3,0.2,0.9,0,0,0,0,0,0,0,0,0,0,47.6,0,0,99,4.155,4.134,4.146,4.155,0,0,7.38,53.42,1524.3004313235,50.524936,6,P-GPS,
12100,2023-01-19 11:40:59,46.6531794738118,14.2880098283495,50.524936,50.6561696,1473.6442617235,1524.3004313235,40.026248,0.0,4.4885828208,7.863353270000001,20,5,16.584,1524.3004313235,50.524936,4.1159696,4.7802494968,0.0,0.0,0.0,51.3,0.2,0.6,0,0,0,0,0,0,0,0,0,0,47.6,0,0,99,4.153,4.132,4.143,4.154,0,0,7.32,53.42,1524.3004313235,50.524936,6,P-GPS,
12300,2023-01-19 11:40:59,46.6531794050262,14.2880099657715,50.524936,50.6561696,1473.6442617235,1524.3004313235,40.026248,0.0,4.5077757348,7.905938573200001,20,5,16.584,1524.3004313235,50.524936,4.1159696,4.7802494968,0.0,0.0,0.0,51.3,0.2,0.3,0,0,0,0,0,0,0,0,0,0,47.6,0,0,99,4.153,4.132,4.143,4.154,0,0,7.32,53.42,1524.3004313235,50.524936,6,P-GPS,
12500,2023-01-19 11:41:00,46.6531791959229,14.2880100792462,50.524936,50.6561696,1473.6442617235,1524.3004313235,40.026248,0.0,4.4993111676,7.987369021999999,20,5,16.584,1524.3004313235,50.524936,4.1159696,4.7802494968,0.0,0.0,0.0,51.3,0.3,0.2,0,0,0,0,0,0,0,0,0,0,47.6,0,0,99,4.153,4.132,4.143,4.154,0,0,7.32,53.42,1524.3004313235,50.524936,6,P-GPS,
12700,2023-01-19 11:41:00,46.6531790156282,14.288010165521,50.524936,50.6561696,1473.6442617235,1524.3004313235,40.026248,0.0,4.4905841332,8.056594746,20,5,16.584,1524.3004313235,50.524936,4.1159696,4.7802494968,0.0,0.0,0.0,51.3,0.4,0.1,0,0,0,0,0,0,0,0,0,0,47.6,0,0,99,4.153,4.132,4.143,4.154,0,0,7.32,53.42,1524.3004313235,50.524936,6,P-GPS,
12900,2023-01-19 11:41:00,46.6531788437205,14.28801024323,50.524936,50.6561696,1473.6442617235,1524.3004313235,40.026248,0.0,4.4822179912,8.1222771628,20,5,16.584,1524.3004313235,50.524936,4.1159696,4.7802494968,0.0,0.0,0.0,51.3,0.4,0.1,0,0,0,0,0,0,0,0,0,0,47.6,0,0,99,4.153,4.132,4.143,4.154,0,0,7.32,53.42,1524.3004313235,50.524936,6,P-GPS,
13100,2023-01-19 11:41:00,46.6531786649924,14.2880101618426,50.524936,50.6561696,1473.6442617235,1524.3004313235,40.026248,0.0,4.4372376748,8.1905842516,20,5,16.575,1524.3004313235,50.524936,4.1159696,4.7802494968,0.0,0.0,0.0,51.3,0.5,0.4,0,0,0,0,0,0,0,0,0,0,47.6,0,0,99,4.151,4.13,4.141,4.151,0,0,7.336,53.42,1524.3004313235,50.524936,6,P-GPS,
13300,2023-01-19 11:41:00,46.6531786280463,14.2880102683551,50.524936,50.6561696,1473.6442617235,1524.3004313235,40.026248,0.0,4.456364972,8.220472704,20,5,16.575,1524.3004313235,50.524936,4.1159696,4.7802494968,0.0,0.0,0.0,51.4,0.6,0.5,0,0,0,0,0,0,0,0,0,0,47.6,0,0,99,4.151,4.13,4.141,4.151,0,0,7.336,53.42,1524.3004313235,50.524936,6,P-GPS,
13500,2023-01-19 11:41:01,46.6531783788231,14.2880102104984,50.524936,50.5905528,1473.7098785235,1524.3004313235,40.026248,0.0,4.4079397736,8.3125658828,20,5,16.575,1524.3004313235,50.524936,4.1159696,4.7802494968,0.0,0.0,0.0,51.4,0.5,0.6,0,0,0,0,0,0,0,0,0,0,47.6,0,0,99,4.151,4.13,4.141,4.151,0,0,7.336,53.42,1524.3004313235,50.524936,6,P-GPS,
13700,2023-01-19 11:41:01,46.653178272971,14.288010166443,50.524936,50.5905528,1473.7098785235,1524.3004313235,40.026248,0.0,4.3832350484,8.3527233644,20,5,16.575,1524.3004313235,50.524936,4.1159696,4.7802494968,0.0,0.0,0.0,51.4,0.5,0.6,0,0,0,0,0,0,0,0,0,0,47.6,0,0,99,4.151,4.13,4.141,4.151,0,0,7.336,53.42,1524.3004313235,50.524936,6,P-GPS,
13900,2023-01-19 11:41:01,46.6531780061049,14.2880101494329,50.524936,50.5905528,1473.7098785235,1524.3004313235,40.026248,0.0,4.3440618188,8.4501643124,20,5,16.575,1524.3004313235,50.524936,4.1159696,4.7802494968,0.0,0.0,0.0,51.4,0.5,0.6,0,0,0,0,0,0,0,0,0,0,47.6,0,0,99,4.151,4.13,4.141,4.151,0,0,7.336,53.42,1524.3004313235,50.524936,6,P-GPS,
14100,2023-01-19 11:41:01,46.6531779179294,14.2880101628503,50.524936,50.5905528,1473.7098785235,1524.3004313235,40.026248,0.0,4.3360237608,8.4825133948,20,5,16.571,1524.3004313235,50.524936,4.1159696,4.7802494968,0.0,0.0,0.0,51.4,0.5,0.6,0,0,0,0,0,0,0,0,0,0,47.6,0,0,99,4.151,4.131,4.143,4.152,0,0,7.363,53.6,1524.3004313235,50.524936,6,P-GPS,
14300,2023-01-19 11:41:01,46.6531776680461,14.288010018761,50.524936,50.5905528,1473.7098785235,1524.3004313235,40.026248,0.0,4.2712927876,8.5805777024,20,5,16.571,1524.3004313235,50.524936,4.1159696,4.7802494968,0.0,0.0,0.0,51.4,0.6,0.5,0,0,0,0,0,0,0,0,0,0,47.6,0,0,99,4.151,4.131,4.143,4.152,0,0,7.363,53.6,1524.3004313235,50.524936,6,P-GPS,
14500,2023-01-19 11:41:02,46.6531774417057,14.2880100301941,50.524936,50.5577444,1473.7426869235,1524.3004313235,40.026248,0.0,4.2475723144,8.6631892536,20,5,16.571,1524.3004313235,50.524936,4.1159696,4.7802494968,0.0,0.0,0.0,51.3,0.5,0.5,0,0,0,0,0,0,0,0,0,0,47.6,0,0,99,4.151,4.131,4.143,4.152,0,0,7.363,53.6,1524.3004313235,50.524936,6,P-GPS,
14700,2023-01-19 11:41:02,46.6531773856438,14.288009875085,50.524936,50.5577444,1473.7426869235,1524.3004313235,40.026248,0.0,4.2042980348,8.7071197012,20,5,16.571,1524.3004313235,50.524936,4.1159696,4.7802494968,0.0,0.0,0.0,51.4,0.4,0.6,0,0,0,0,0,0,0,0,0,0,47.6,0,0,99,4.151,4.131,4.143,4.152,0,0,7.363,53.6,1524.3004313235,50.524936,6,P-GPS,
14900,2023-01-19 11:41:02,46.6531771522111,14.2880099070412,50.524936,50.5577444,1473.7426869235,1524.3004313235,40.026248,0.0,4.18635184,8.7926512,20,5,16.571,1524.3004313235,50.524936,4.1159696,4.7802494968,0.0,0.0,0.0,51.4,0.5,0.6,0,0,0,0,0,0,0,0,0,0,47.6,0,0,99,4.151,4.131,4.143,4.152,0,0,7.363,53.6,1524.3004313235,50.524936,6,P-GPS,
15100,2023-01-19 11:41:02,46.6531770971017,14.2880097817887,50.524936,50.5577444,1473.7426869235,1524.3004313235,40.026248,0.0,4.1505250672,8.8299215424,20,5,16.575,1524.3004313235,50.524936,4.1159696,4.7802494968,0.0,0.0,0.0,51.3,0.5,0.6,0,0,1,0,0,0,1,0,0,0,47.6,0,0,99,4.151,4.13,4.141,4.15,0,0,7.257,53.78,1524.3004313235,50.524936,6,P-GPS,
15300,2023-01-19 11:41:02,46.653176874409,14.2880098286521,50.524936,50.5577444,1473.7426869235,1524.3004313235,40.026248,0.0,4.139107744,8.9120081592,20,5,16.575,1524.3004313235,50.524936,4.1159696,4.7802494968,0.0,0.0,0.0,51.4,0.4,0.3,0,0,20,0,0,0,20,0,0,0,47.6,0,0,99,4.151,4.13,4.141,4.15,0,0,7.257,53.78,1524.3004313235,50.524936,6,P-GPS,
15500,2023-01-19 11:41:03,46.653176825773,14.2880097107736,50.524936,50.5577444,1473.7426869235,1524.3004313235,40.026248,0.0,4.1059056432,8.9464569792,20,5,16.575,1524.3004313235,50.524936,4.1159696,4.7802494968,0.0,0.0,0.0,51.4,-0.5,0.2,0,0,59,0,0,0,59,0,0,0,47.6,0,0,99,4.151,4.13,4.141,4.15,0,0,7.257,53.78,1524.3004313235,50.524936,6,P-GPS,
15700,2023-01-19 11:41:03,46.6531768235795,14.2880098397779,50.524936,50.5577444,1473.7426869235,1524.3004313235,40.026248,0.0,4.1368439644,8.9787732532,20,5,16.575,1524.3004313235,50.524936,4.1159696,4.7802494968,0.0,0.0,0.0,51.3,-4.6,0.3,0,0,68,0,0,0,68,0,0,0,47.6,0,0,99,4.151,4.13,4.141,4.15,0,0,7.257,53.78,1524.3004313235,50.524936,6,P-GPS,
15900,2023-01-19 11:41:03,46.6531770036022,14.2880101327208,50.524936,50.5577444,1473.7426869235,1524.3004313235,40.026248,0.6263431999999999,4.225229794,9.0772312616,20,5,16.575,1524.3004313235,50.524936,4.1159696,4.7802494968,0.447388,0.447388,0.0,51.3,-11.3,0.3,0,0,73,0,0,0,73,0,0,0,47.6,0,0,99,4.151,4.13,4.141,4.15,0,0,7.257,53.78,1524.3004313235,50.524936,6,P-GPS,
16100,2023-01-19 11:41:03,46.6531775256895,14.2880113979867,50.524936,50.5905528,1473.7098785235,1524.3004313235,40.026248,1.4316416,4.5833006716,9.4469491212,20,5,16.565,1524.3004313235,50.524936,4.1159696,4.7802494968,0.894776,1.11847,0.0,51.2,-15.5,0.3,0,0,83,0,0,0,83,0,0,0,47.6,0,0,98,4.15,4.128,4.136,4.147,0,0,7.306,53.78,1524.3004313235,50.524936,6,P-GPS,
16300,2023-01-19 11:41:03,46.6531787484393,14.2880136865267,50.524936,50.6233612,1473.6770701235,1524.3004313235,40.026248,2.8632832,5.268864998,10.1732614804,20,5,16.565,1524.3004313235,50.524936,4.1159696,5.268864998,1.789552,2.23694,0.0,51.2,-18,0.4,0,0,84,0,0,0,84,0,0,0,47.6,0,0,98,4.15,4.128,4.136,4.147,0,0,7.306,53.78,1524.3004313235,50.524936,6,P-GPS,
16500,2023-01-19 11:41:04,46.6531806567767,14.2880173519352,50.524936,50.688978,1473.6114533235,1524.3004313235,40.026248,4.2949248,6.3785435112,11.3253940632,20,5,16.565,1524.3004313235,50.524936,4.2949248,6.3785435112,2.684328,3.35541,0.0,52.1,-20.2,0.6,0,0,72,0,0,0,72,0,0,0,47.6,0,0,98,4.15,4.128,4.136,4.147,0,0,7.306,53.78,1524.3004313235,50.524936,6,P-GPS,
16700,2023-01-19 11:41:04,46.653183057115,14.2880222058456,50.524936,50.7217864,1473.5786449235,1524.3004313235,40.026248,5.7265664,7.8468178364000005,12.8235896492,20,5,16.565,1524.3004313235,50.524936,5.7265664,7.8468178364000005,3.579104,4.47388,0.0,51.9,-19.9,0.6,0,0,57,0,0,0,57,0,0,0,47.6,0,0,98,4.15,4.128,4.136,4.147,0,0,7.306,53.78,1524.3004313235,50.524936,6,P-GPS,
16900,2023-01-19 11:41:04,46.6531865600791,14.2880286380291,50.524936,50.8202116,1473.4802197235,1524.3004313235,40.026248,7.158208,9.86138483,14.8798889276,20,5,16.565,1524.3004313235,50.524936,7.158208,9.86138483,4.47388,5.59235,0.0,51.6,-15,0.6,0,0,59,0,0,0,59,0,0,0,47.6,0,0,98,4.15,4.128,4.136,4.147,0,0,7.306,53.78,1524.3004313235,50.524936,6,P-GPS,
17100,2023-01-19 11:41:04,46.6531904805711,14.288035466272,50.524936,50.9186368,1473.3817945235,1524.3004313235,40.026248,7.9635064,12.0524282072,17.1092853244,20,5,16.565,1524.3004313235,50.524936,7.9635064,12.0524282072,4.921268,6.263432,0.0,51.6,-9.5,0.7,0,0,61,0,0,0,61,0,0,0,47.6,0,0,98,4.15,4.128,4.136,4.147,0,0,7.306,53.78,1524.3004313235,50.524936,6,P-GPS,
17300,2023-01-19 11:41:04,46.6531945825607,14.288043094584,50.524936,51.0498704,1473.2505609235,1524.3004313235,40.026248,8.276678,14.4606631924,19.5361226724,20,5,16.506,1524.3004313235,50.524936,8.276678,14.4606631924,5.144962,6.487126,0.0,51.6,-7.8,0.7,0,0,0,0,0,0,0,0,0,0,47.6,0,0,98,4.134,4.115,4.126,4.137,0,0,7.752,53.78,1524.3004313235,50.524936,6,P-GPS,
17500,2023-01-19 11:41:05,46.6531988883805,14.2880512149217,50.524936,51.1482956,1473.1521357235,1524.3004313235,40.026248,8.5898496,17.0180779724,22.1058734108,20,5,16.506,1524.3004313235,50.524936,8.5898496,17.0180779724,5.368656,6.71082,0.0,51.7,-5.7,0.7,0,0,0,0,0,0,0,0,0,0,47.6,0,0,98,4.134,4.115,4.126,4.137,0,0,7.752,53.78,1524.3004313235,50.524936,6,P-GPS,
17700,2023-01-19 11:41:05,46.6532031507486,14.2880591535603,50.196852,50.85302,1473.1193273235,1523.9723473235,40.026248,8.5898496,19.531988814,24.6299548564,20,5,16.506,1524.3004313235,50.524936,8.5898496,19.531988814,5.368656,6.71082,0.0,51.8,11,1,0,0,0,0,33,0,0,0,33,0,47.6,0,0,98,4.134,4.115,4.126,4.137,0,0,7.752,53.78,1523.9723473235,50.196852,6,P-GPS,
17900,2023-01-19 11:41:05,46.6532070476778,14.2880664279537,50.196852,50.8858284,1473.0865189235,1523.9723473235,40.026248,6.8450364,21.8358274704,26.9408801272,20,5,16.506,1524.3004313235,50.524936,8.5898496,21.8358274704,4.250186,5.368656,0.0,52,30,0.9,0,0,0,0,57,0,0,0,57,0,47.6,0,0,98,4.134,4.115,4.126,4.137,0,0,7.752,53.78,1523.9723473235,50.196852,6,P-GPS,
18100,2023-01-19 11:41:05,46.6532093609533,14.2880706878042,50.524936,51.181104,1473.1193273235,1524.3004313235,40.026248,3.802798,23.1919954928,28.3012148164,20,5,16.506,1524.3004313235,50.524936,8.5898496,23.1919954928,2.460634,2.908022,-0.447388,52.1,29.6,1,0,0,0,0,67,0,0,0,67,0,47.6,0,0,98,4.134,4.115,4.126,4.137,0,0,7.752,53.78,1524.3004313235,50.524936,6,P-GPS,
18300,2023-01-19 11:41:05,46.653210294796,14.2880722398313,51.181104,51.8700804,1473.0865189235,1524.9565993235,40.026248,0.6263431999999999,23.7048235932,28.81807835,20,5,16.587,1524.9565993235,51.181104,8.5898496,23.7048235932,0.447388,0.447388,-2.684328,51.8,10.2,1.7,0,0,0,0,63,0,0,0,63,0,47.6,0,0,98,4.151,4.128,4.133,4.133,0,0,7.182,53.96,1524.9565993235,51.181104,6,P-GPS,
18500,2023-01-19 11:41:06,46.6532102960038,14.2880725136145,52.165356,52.821524,1473.1193273235,1525.9408513235,40.026248,0.0,23.7618445924,28.886647906,20,5,16.587,1525.9408513235,52.165356,8.5898496,23.7618445924,0.0,0.0,-4.697574,51.7,-1,1.9,0,0,0,0,57,0,0,0,57,0,47.6,0,0,98,4.151,4.128,4.133,4.133,0,0,7.182,53.96,1525.9408513235,52.165356,6,P-GPS,
18700,2023-01-19 11:41:06,46.6532103956689,14.2880730132581,53.80577600000001,54.461944,1473.1193273235,1527.5812713235,40.026248,0.223694,23.8859259612,29.016962870800004,20,5,16.587,1527.5812713235,53.80577600000001,8.5898496,23.8859259612,0.0,0.223694,-4.921268,51.8,-1.1,1.2,0,0,0,0,52,0,0,0,52,0,47.6,0,0,98,4.151,4.128,4.133,4.133,0,0,7.182,53.96,1527.5812713235,53.80577600000001,6,P-GPS,
18900,2023-01-19 11:41:06,46.6532107202261,14.2880738656826,55.11811200000001,55.8070884,1473.0865189235,1528.8936073235,40.026248,0.223694,24.1291346304,29.2610901752,20,5,16.587,1528.8936073235,55.11811200000001,8.5898496,24.1291346304,0.0,0.223694,-4.250186,51.9,0,0.6,0,0,0,0,52,0,0,0,52,0,47.6,0,0,98,4.151,4.128,4.133,4.133,0,0,7.182,53.96,1528.8936073235,55.11811200000001,6,P-GPS,
19100,2023-01-19 11:41:06,46.6532105241811,14.2880747636398,56.430448,57.08661600000001,1473.1193273235,1530.2059433235,40.026248,0.223694,24.2765427716,29.497048188,20,5,16.587,1530.2059433235,56.430448,8.5898496,24.2765427716,0.0,0.223694,-3.579104,51.8,2,-0.2,0,0,0,0,53,0,0,0,53,0,47.6,0,0,98,4.151,4.128,4.133,4.133,0,0,7.182,53.96,1530.2059433235,56.430448,6,P-GPS,
19300,2023-01-19 11:41:06,46.6532103171198,14.2880751126392,57.4147,58.0380596,1473.1521357235,1531.1901953235,40.026248,0.223694,24.3080060272,29.6125993728,20,5,16.374,1531.1901953235,57.4147,8.5898496,24.3080060272,0.0,0.223694,-3.35541,51.8,2.4,-0.9,0,0,0,0,49,0,0,0,49,0,47.6,0,0,98,4.135,4.12,4.137,4.151,0,0,10.895,53.96,1531.1901953235,57.4147,6,P-GPS,
19500,2023-01-19 11:41:07,46.6532102744894,14.2880753372517,58.398952,59.02231160000001,1473.1521357235,1532.1744473235,40.026248,0.0,24.3465887056,29.670932708,20,5,16.374,1532.1744473235,58.398952,8.5898496,24.3465887056,0.0,0.0,-3.35541,51.7,1.9,-0.4,0,0,0,0,49,0,0,0,49,0,47.6,0,0,98,4.135,4.12,4.137,4.151,0,0,10.895,53.96,1532.1744473235,58.398952,6,P-GPS,
19700,2023-01-19 11:41:07,46.6532104081758,14.2880755711617,59.383204,59.9737552,1473.1849441235,1533.1586993235,40.026248,0.0,24.4223104928,29.747179429599996,20,5,16.374,1533.1586993235,59.383204,8.5898496,24.4223104928,0.0,0.0,-2.908022,51.8,2,0.3,0,0,0,0,51,0,0,0,51,0,47.6,0,0,98,4.135,4.12,4.137,4.151,0,0,10.895,53.96,1533.1586993235,59.383204,6,P-GPS,
19900,2023-01-19 11:41:07,46.6532106579616,14.2880756581526,60.367456,60.990815600000005,1473.1521357235,1534.1429513235,40.026248,0.0,24.4904535396,29.840880219999995,20,5,16.374,1534.1429513235,60.367456,8.5898496,24.4904535396,0.0,0.0,-2.908022,51.8,3.2,1.1,0,0,0,0,52,0,0,0,52,0,47.6,0,0,98,4.135,4.12,4.137,4.151,0,0,10.895,53.96,1534.1429513235,60.367456,6,P-GPS,
20100,2023-01-19 11:41:07,46.6532106117034,14.2880753968306,61.023624,61.679792,1473.1193273235,1534.7991193235,40.026248,0.0,24.4264771596,29.908465524,20,5,16.374,1534.7991193235,61.023624,8.5898496,24.4904535396,0.0,0.0,-3.131716,52,2,1.2,0,0,0,0,52,0,0,0,52,0,47.6,0,0,98,4.135,4.12,4.137,4.151,0,0,10.895,53.96,1534.7991193235,61.023624,6,P-GPS,
20300,2023-01-19 11:41:07,46.6532103784634,14.2880746467035,62.33595999999999,62.9593196,1473.1521357235,1536.1114553235,40.026248,0.223694,24.2228026124,30.1146991264,20,5,16.53,1536.1114553235,62.33595999999999,8.5898496,24.4904535396,0.0,-0.223694,-3.35541,51.9,0.3,1,0,0,0,0,51,0,0,0,51,0,47.6,0,0,98,4.126,4.104,4.114,4.124,0,0,7.509,54.14,1536.1114553235,62.33595999999999,6,P-GPS,
20500,2023-01-19 11:41:08,46.6532101140933,14.288074220248,63.32021199999999,63.9435716,1473.1521357235,1537.0957073235,40.026248,0.223694,24.08054539,30.2585967688,20,5,16.53,1537.0957073235,63.32021199999999,8.5898496,24.4904535396,0.0,-0.223694,-3.35541,51.8,-0.4,1.5,0,0,0,0,51,0,0,0,51,0,47.6,0,0,98,4.126,4.104,4.114,4.124,0,0,7.509,54.14,1537.0957073235,63.32021199999999,6,P-GPS,
20700,2023-01-19 11:41:08,46.653210014167,14.2880739176301,64.304464,64.9278236,1473.1521357235,1538.0799593235,40.026248,0.0,23.997212054,30.342717506399996,20,5,16.53,1538.0799593235,64.304464,8.5898496,24.4904535396,0.0,0.0,-3.131716,51.7,0.1,1,0,0,0,0,51,0,0,0,51,0,47.6,0,0,98,4.126,4.104,4.114,4.124,0,0,7.509,54.14,1538.0799593235,64.304464,6,P-GPS,
20900,2023-01-19 11:41:08,46.6532097982053,14.2880738239313,65.288716,65.9120756,1473.1521357235,1539.0642113235,40.026248,0.0,23.9343183512,30.4249025484,20,5,16.53,1539.0642113235,65.288716,8.5898496,24.4904535396,0.0,0.0,-3.131716,51.8,0.6,1.1,0,0,0,0,50,0,0,0,50,0,47.6,0,0,98,4.126,4.104,4.114,4.124,0,0,7.509,54.14,1539.0642113235,65.288716,6,P-GPS,
21100,2023-01-19 11:41:08,46.6532095869764,14.2880737882638,66.272968,66.8963276,1473.1521357235,1540.0484633235,40.026248,0.0,23.8846464336,30.502494414400005,20,5,16.53,1540.0484633235,66.272968,8.5898496,24.4904535396,0.0,0.0,-3.131716,51.8,0,0.2,0,0,0,0,50,0,0,0,50,0,47.6,0,0,98,4.126,4.104,4.114,4.124,0,0,7.509,54.14,1540.0484633235,66.272968,6,P-GPS,
21300,2023-01-19 11:41:08,46.6532094233465,14.2880737913401,67.25722,67.8477712,1473.1849441235,1541.0327153235,40.026248,0.0,23.8527238604,30.5622057024,20,5,16.479,1541.0327153235,67.25722,8.5898496,24.4904535396,0.0,0.0,-3.131716,51.7,0.8,-0.1,0,0,0,0,0,0,0,0,0,0,47.6,0,0,98,4.128,4.107,4.118,4.126,0,0,8.168,54.14,1541.0327153235,67.25722,6,P-GPS,
21500,2023-01-19 11:41:09,46.6532092963205,14.2880735234849,68.241472,68.8320232,1473.1849441235,1542.0169673235,40.026248,0.0,23.7712277948,30.643734576399996,20,5,16.479,1542.0169673235,68.241472,8.5898496,24.4904535396,0.0,0.0,-2.684328,51.8,0.2,0.3,0,0,0,0,0,0,0,0,0,0,47.6,0,0,98,4.128,4.107,4.118,4.126,0,0,8.168,54.14,1542.0169673235,68.241472,6,P-GPS,
21700,2023-01-19 11:41:09,46.6532091530571,14.2880735763558,68.569556,69.1601072,1473.1849441235,1542.3450513235,40.026248,0.0,23.7539049596,30.697671586,20,5,16.479,1542.3450513235,68.569556,8.5898496,24.4904535396,0.0,0.0,-0.894776,51.8,0.2,0.4,0,0,0,0,0,0,0,0,0,0,47.6,0,0,98,4.128,4.107,4.118,4.126,0,0,8.168,54.14,1542.3450513235,68.569556,6,P-GPS,
21900,2023-01-19 11:41:09,46.6532091392481,14.2880734621089,68.569556,69.1929156,1473.1521357235,1542.3450513235,40.026248,0.0,23.7271661136,30.72670702,20,5,16.479,1542.3450513235,68.569556,8.5898496,24.4904535396,0.0,0.0,0.0,51.8,0.7,0,0,0,0,0,0,0,0,0,0,0,47.6,0,0,98,4.128,4.107,4.118,4.126,0,0,8.168,54.14,1542.3450513235,68.569556,6,P-GPS,
22100,2023-01-19 11:41:09,46.6532094347012,14.2880731512355,68.569556,69.1929156,1473.1521357235,1542.3450513235,40.026248,0.0,23.7207028588,30.8596794652,20,5,16.479,1542.3450513235,68.569556,8.5898496,24.4904535396,0.0,0.0,0.0,51.8,1,1.3,0,0,0,0,0,0,0,0,0,0,47.6,0,0,98,4.128,4.107,4.118,4.126,0,0,8.168,54.14,1542.3450513235,68.569556,6,P-GPS,
22300,2023-01-19 11:41:09,46.6532094516497,14.2880730269299,68.569556,69.1929156,1473.1521357235,1542.3450513235,40.026248,0.0,23.6980650628,30.8914379964,20,5,16.776,1542.3450513235,68.569556,8.5898496,24.4904535396,0.0,0.0,0.0,51.8,0.9,2.2,0,0,0,0,0,0,0,0,0,0,47.6,0,0,98,4.166,4.143,4.15,4.156,0,0,6.72,54.32,1542.3450513235,68.569556,6,P-GPS,
22500,2023-01-19 11:41:10,46.6532093594845,14.2880728115774,68.569556,69.1929156,1473.1521357235,1542.3450513235,40.026248,0.0,23.634515192,30.9549878672,20,5,16.776,1542.3450513235,68.569556,8.5898496,24.4904535396,0.0,0.0,0.0,51.8,0.4,1.7,0,0,0,0,0,0,0,0,0,0,47.6,0,0,98,4.166,4.143,4.15,4.156,0,0,6.72,54.32,1542.3450513235,68.569556,6,P-GPS,
22700,2023-01-19 11:41:10,46.6532092646594,14.2880726905539,68.569556,69.1929156,1473.1521357235,1542.3450513235,40.026248,0.0,23.5901910436,31.000985244,20,5,16.776,1542.3450513235,68.569556,8.5898496,24.4904535396,0.0,0.0,0.0,51.7,0.2,1,0,0,0,0,0,0,0,0,0,0,47.6,0,0,98,4.166,4.143,4.15,4.156,0,0,6.72,54.32,1542.3450513235,68.569556,6,P-GPS,
22900,2023-01-19 11:41:10,46.6532090946989,14.2880727257783,68.569556,69.1929156,1473.1521357235,1542.3450513235,40.026248,0.0,23.563649048,31.063616479600004,20,5,16.776,1542.3450513235,68.569556,8.5898496,24.4904535396,0.0,0.0,0.0,51.8,0.5,0.9,0,0,0,0,0,0,0,0,0,0,47.6,0,0,98,4.166,4.143,4.15,4.156,0,0,6.72,54.32,1542.3450513235,68.569556,6,P-GPS,
23100,2023-01-19 11:41:10,46.6532090151519,14.2880726763019,68.569556,69.1929156,1473.1521357235,1542.3450513235,40.026248,0.0,23.5374351364,31.0951781604,20,5,16.776,1542.3450513235,68.569556,8.5898496,24.4904535396,0.0,0.0,0.0,51.8,0.4,0.6,0,0,0,0,0,0,0,0,0,0,47.6,0,0,98,4.166,4.143,4.15,4.156,0,0,6.72,54.32,1542.3450513235,68.569556,6,P-GPS,
23300,2023-01-19 11:41:10,46.6532087959992,14.2880727105155,68.569556,69.1929156,1473.1521357235,1542.3450513235,40.026248,0.0,23.5010834292,31.1755915488,20,5,16.52,1542.3450513235,68.569556,8.5898496,24.4904535396,0.0,0.0,0.0,51.7,0.4,0.7,0,0,0,0,0,0,0,0,0,0,47.6,0,0,98,4.14,4.119,4.129,4.139,0,0,7.363,54.32,1542.3450513235,68.569556,6,P-GPS,
23500,2023-01-19 11:41:11,46.6532087553605,14.2880725434663,68.89764,69.5209996,1473.1521357235,1542.6731353235,40.026248,0.0,23.4579075748,31.219981313999998,20,5,16.52,1542.6731353235,68.89764,8.5898496,24.4904535396,0.0,0.0,0.0,51.8,0.4,0.7,0,0,0,0,0,0,0,0,0,0,47.6,0,0,98,4.14,4.119,4.129,4.139,0,0,7.363,54.32,1542.6731353235,68.89764,6,P-GPS,
23700,2023-01-19 11:41:11,46.6532087063739,14.2880725492819,68.89764,69.5209996,1473.1521357235,1542.6731353235,40.026248,0.0,23.4494101992,31.2378947004,20,5,16.52,1542.6731353235,68.89764,8.5898496,24.4904535396,0.0,0.0,0.0,51.8,0.3,0.7,0,0,0,0,0,0,0,0,0,0,47.6,0,0,98,4.14,4.119,4.129,4.139,0,0,7.363,54.32,1542.6731353235,68.89764,6,P-GPS,
23900,2023-01-19 11:41:11,46.6532086418093,14.2880725619178,68.89764,69.5209996,1473.1521357235,1542.6731353235,40.026248,0.0,23.439305212,31.2616807904,20,5,16.52,1542.6731353235,68.89764,8.5898496,24.4904535396,0.0,0.0,0.0,51.7,0.4,0.7,0,0,0,0,0,0,0,0,0,0,47.6,0,0,98,4.14,4.119,4.129,4.139,0,0,7.363,54.32,1542.6731353235,68.89764,6,P-GPS,
24100,2023-01-19 11:41:11,46.6532083991121,14.28807258455,68.89764,69.4881912,1473.1849441235,1542.6731353235,40.026248,0.0,23.3961949744,31.350394703999996,20,5,16.52,1542.6731353235,68.89764,8.5898496,24.4904535396,0.0,0.0,0.0,51.7,0.3,0.9,0,0,0,0,0,0,0,0,0,0,47.6,0,0,98,4.14,4.119,4.129,4.139,0,0,7.363,54.32,1542.6731353235,68.89764,6,P-GPS,
24300,2023-01-19 11:41:11,46.6532083145238,14.2880726239489,68.89764,69.4881912,1473.1849441235,1542.6731353235,40.026248,0.0,23.3878944492,31.3828094032,20,5,16.53,1542.6731353235,68.89764,8.5898496,24.4904535396,0.0,0.0,0.0,51.7,0.2,1,0,0,0,0,0,0,0,0,0,0,47.6,0,0,98,4.139,4.12,4.131,4.142,0,0,7.279,54.32,1542.6731353235,68.89764,6,P-GPS,
24500,2023-01-19 11:41:12,46.6532082110767,14.2880726914151,68.89764,69.4881912,1473.1849441235,1542.6731353235,40.026248,0.0,23.3818577036,31.4241479872,20,5,16.53,1542.6731353235,68.89764,8.5898496,24.4904535396,0.0,0.0,0.0,51.8,0.2,0.9,0,0,0,0,0,0,0,0,0,0,47.6,0,0,98,4.139,4.12,4.131,4.142,0,0,7.279,54.32,1542.6731353235,68.89764,6,P-GPS,
24700,2023-01-19 11:41:12,46.6532081067558,14.2880727618888,68.89764,69.4881912,1473.1849441235,1542.6731353235,40.026248,0.0,23.3763458924,31.466109930799995,20,5,16.53,1542.6731353235,68.89764,8.5898496,24.4904535396,0.0,0.0,0.0,51.7,0.3,0.7,0,0,0,0,0,0,0,0,0,0,47.6,0,0,98,4.139,4.12,4.131,4.142,0,0,7.279,54.32,1542.6731353235,68.89764,6,P-GPS,
24900,2023-01-19 11:41:12,46.6532080032059,14.2880728026231,68.89764,69.4881912,1473.1849441235,1542.6731353235,40.026248,0.0,23.3647645272,31.505250352,20,5,16.53,1542.6731353235,68.89764,8.5898496,24.4904535396,0.0,0.0,0.0,51.8,0.3,0.5,0,0,0,0,0,0,0,0,0,0,47.6,0,0,98,4.139,4.12,4.131,4.142,0,0,7.279,54.32,1542.6731353235,68.89764,6,P-GPS,
25100,2023-01-19 11:41:12,46.6532079160648,14.288072791853,68.89764,69.4881912,1473.1849441235,1542.6731353235,40.026248,0.0,23.3455388048,31.5371401168,20,5,16.53,1542.6731353235,68.89764,8.5898496,24.4904535396,0.0,0.0,0.0,51.8,0.4,0.5,0,0,0,0,0,0,0,0,0,0,47.6,0,0,98,4.139,4.12,4.131,4.142,0,0,7.279,54.32,1542.6731353235,68.89764,6,P-GPS,
25300,2023-01-19 11:41:12,46.6532078246833,14.2880727486914,68.89764,69.4881912,1473.1849441235,1542.6731353235,40.026248,0.0,23.3186359168,31.572179488,20,5,16.531,1542.6731353235,68.89764,8.5898496,24.4904535396,0.0,0.0,0.0,51.7,0.5,0.9,0,0,0,0,0,0,0,0,0,0,47.6,0,0,98,4.14,4.121,4.131,4.141,0,0,7.22,54.5,1542.6731353235,68.89764,6,P-GPS,
25500,2023-01-19 11:41:13,46.6532078744409,14.2880727180845,68.89764,69.4881912,1473.1849441235,1542.6731353235,40.026248,0.0,23.3218183316,31.5918973364,20,5,16.531,1542.6731353235,68.89764,8.5898496,24.4904535396,0.0,0.0,0.0,51.8,0.3,0.9,0,0,0,0,0,0,0,0,0,0,47.6,0,0,98,4.14,4.121,4.131,4.141,0,0,7.22,54.5,1542.6731353235,68.89764,6,P-GPS,
25700,2023-01-19 11:41:13,46.6532077227482,14.2880728877233,68.89764,69.4881912,1473.1849441235,1542.6731353235,40.026248,0.0,23.3283800116,31.661680803199996,20,5,16.531,1542.6731353235,68.89764,8.5898496,24.4904535396,0.0,0.0,0.0,51.8,0.3,0.5,0,0,0,0,0,0,0,0,0,0,47.6,0,0,98,4.14,4.121,4.131,4.141,0,0,7.22,54.5,1542.6731353235,68.89764,6,P-GPS,
25900,2023-01-19 11:41:13,46.6532075931309,14.2880730324647,68.89764,69.4881912,1473.1849441235,1542.6731353235,40.026248,0.0,23.3341214816,31.7212608576,20,5,16.531,1542.6731353235,68.89764,8.5898496,24.4904535396,0.0,0.0,0.0,51.7,0.5,0.4,0,0,0,0,0,0,0,0,0,0,47.6,0,0,98,4.14,4.121,4.131,4.141,0,0,7.22,54.5,1542.6731353235,68.89764,6,P-GPS,
26100,2023-01-19 11:41:13,46.653207480218,14.2880729792131,68.89764,69.4553828,1473.2177525235,1542.6731353235,40.026248,0.0,23.3010506144,31.7645679456,20,5,16.531,1542.6731353235,68.89764,8.5898496,24.4904535396,0.0,0.0,0.0,51.8,0.2,0.6,0,0,0,0,0,0,0,0,0,0,47.6,0,0,98,4.14,4.121,4.131,4.141,0,0,7.22,54.5,1542.6731353235,68.89764,6,P-GPS,
26300,2023-01-19 11:41:13,46.6532073750747,14.2880729468591,68.89764,69.4553828,1473.2177525235,1542.6731353235,40.026248,0.0,23.273950876,31.803773983600003,20,5,16.525,1542.6731353235,68.89764,8.5898496,24.4904535396,0.0,0.0,0.0,51.7,0.3,0.6,0,0,0,0,0,0,0,0,0,0,47.6,0,0,98,4.138,4.12,4.131,4.14,0,0,7.205,54.5,1542.6731353235,68.89764,6,P-GPS,
26500,2023-01-19 11:41:14,46.6532072649244,14.2880731150939,68.89764,69.4553828,1473.2177525235,1542.6731353235,40.026248,0.0,23.288714656,31.8619760852,20,5,16.525,1542.6731353235,68.89764,8.5898496,24.4904535396,0.0,0.0,0.0,51.7,0.3,0.4,0,0,0,0,0,0,0,0,0,0,47.6,0,0,98,4.138,4.12,4.131,4.14,0,0,7.205,54.5,1542.6731353235,68.89764,6,P-GPS,
26700,2023-01-19 11:41:14,46.6532071605864,14.2880731126665,68.89764,69.4553828,1473.2177525235,1542.6731353235,40.026248,0.0,23.2682750228,31.9000666376,20,5,16.525,1542.6731353235,68.89764,8.5898496,24.4904535396,0.0,0.0,0.0,51.7,0.5,0.4,0,0,0,0,0,0,0,0,0,0,47.6,0,0,98,4.138,4.12,4.131,4.14,0,0,7.205,54.5,1542.6731353235,68.89764,6,P-GPS,
26900,2023-01-19 11:41:14,46.6532070507702,14.28807308805,68.89764,69.4553828,1473.2177525235,1542.6731353235,40.026248,0.0,23.2420939196,31.9405850116,20,5,16.525,1542.6731353235,68.89764,8.5898496,24.4904535396,0.0,0.0,0.0,51.8,0.5,0,0,0,0,0,0,0,0,0,0,0,47.6,0,0,98,4.138,4.12,4.131,4.14,0,0,7.205,54.5,1542.6731353235,68.89764,6,P-GPS,
27100,2023-01-19 11:41:14,46.6532071373973,14.2880731917264,68.89764,69.4553828,1473.2177525235,1542.6731353235,40.026248,0.0,23.2807422148,31.9814970864,20,5,16.525,1542.6731353235,68.89764,8.5898496,24.4904535396,0.0,0.0,0.0,51.7,0.5,0,0,0,0,0,0,0,0,0,0,0,47.6,0,0,98,4.138,4.12,4.131,4.14,0,0,7.205,54.5,1542.6731353235,68.89764,6,P-GPS,
27300,2023-01-19 11:41:14,46.6532070540211,14.2880732620005,69.225724,69.7834668,1473.2177525235,1543.0012193235,40.026248,0.0,23.2798891964,32.0166348828,20,5,16.525,1543.0012193235,69.225724,8.5898496,24.4904535396,0.0,0.0,0.0,51.8,0.6,0,0,0,0,0,0,0,0,0,0,0,47.6,0,0,98,4.138,4.12,4.131,4.14,0,0,7.205,54.5,1543.0012193235,69.225724,6,P-GPS,
27500,2023-01-19 11:41:15,46.6532069650383,14.2880731646264,69.225724,69.7834668,1473.2177525235,1543.0012193235,40.026248,0.0,23.2421595364,32.057251682,20,5,16.524,1543.0012193235,69.225724,8.5898496,24.4904535396,0.0,0.0,0.0,51.7,0.6,0.4,0,0,0,0,0,0,0,0,0,0,47.6,0,0,98,4.137,4.118,4.129,4.138,0,0,7.187,54.68,1543.0012193235,69.225724,6,P-GPS,
27700,2023-01-19 11:41:15,46.6532070099516,14.2880731152998,69.225724,69.7834668,1473.2177525235,1543.0012193235,40.026248,0.0,23.240158224,32.077756932,20,5,16.524,1543.0012193235,69.225724,8.5898496,24.4904535396,0.0,0.0,0.0,51.7,0.6,0.7,0,0,0,0,0,0,0,0,0,0,47.6,0,0,98,4.137,4.118,4.129,4.138,0,0,7.187,54.68,1543.0012193235,69.225724,6,P-GPS,
27900,2023-01-19 11:41:15,46.6532070065251,14.2880731138521,69.225724,69.7834668,1473.2177525235,1543.0012193235,40.026248,0.0,23.239173972,32.079069268,20,5,16.524,1543.0012193235,69.225724,8.5898496,24.4904535396,0.0,0.0,0.0,51.8,0.6,0.8,0,0,0,0,0,0,0,0,0,0,47.6,0,0,98,4.137,4.118,4.129,4.138,0,0,7.187,54.68,1543.0012193235,69.225724,6,P-GPS,
28100,2023-01-19 11:41:15,46.6532068166522,14.2880729767484,69.225724,69.7834668,1473.2177525235,1543.0012193235,40.026248,0.0,23.1738196392,32.1563986668,20,5,16.524,1543.0012193235,69.225724,8.5898496,24.4904535396,0.0,0.0,0.0,51.7,0.4,0.7,0,0,0,0,0,0,0,0,0,0,47.6,0,0,98,4.137,4.118,4.129,4.138,0,0,7.187,54.68,1543.0012193235,69.225724,6,P-GPS,
28300,2023-01-19 11:41:15,46.6532068023164,14.2880730273979,69.225724,69.7834668,1473.2177525235,1543.0012193235,40.026248,0.0,23.181923314,32.170112578,20,5,16.524,1543.0012193235,69.225724,8.5898496,24.4904535396,0.0,0.0,0.0,51.8,0.3,0.5,0,0,0,0,0,0,0,0,0,0,47.6,0,0,98,4.137,4.118,4.129,4.138,0,0,7.187,54.68,1543.0012193235,69.225724,6,P-GPS,
28500,2023-01-19 11:41:16,46.6531968684361,14.2880691122041,69.225724,69.4881912,1473.5130281235,1543.0012193235,40.026248,0.0,20.6254271692,35.924869916,20,5,16.526,1543.0012193235,69.225724,8.5898496,24.4904535396,0.0,0.0,0.0,51.8,0.1,0.1,0,0,0,0,2,0,0,0,2,0,47.6,0,0,98,4.14,4.121,4.131,4.14,0,0,7.207,54.68,1543.0012193235,69.225724,6,P-GPS,
28700,2023-01-19 11:41:16,46.6531968312387,14.2880691495718,69.225724,69.4881912,1473.5130281235,1543.0012193235,40.026248,0.0,20.628445542,35.941274116,20,5,16.526,1543.0012193235,69.225724,8.5898496,24.4904535396,0.0,0.0,0.0,51.8,0.1,-0.1,0,0,0,0,7,0,0,0,7,0,47.6,0,0,98,4.14,4.121,4.131,4.14,0,0,7.207,54.68,1543.0012193235,69.225724,6,P-GPS,
28900,2023-01-19 11:41:16,46.6531968709783,14.2880691380648,69.225724,69.4881912,1473.5130281235,1543.0012193235,40.026248,0.0,20.631726382,35.956037896,20,5,16.526,1543.0012193235,69.225724,8.5898496,24.4904535396,0.0,0.0,0.0,51.8,0.1,0,0,0,0,0,8,0,0,0,8,0,47.6,0,0,98,4.14,4.121,4.131,4.14,0,0,7.207,54.68,1543.0012193235,69.225724,6,P-GPS,
29100,2023-01-19 11:41:16,46.6531969061742,14.288069134644,69.225724,69.4881912,1473.5130281235,1543.0012193235,40.026248,0.0,20.6361883244,35.968833172,20,5,16.526,1543.0012193235,69.225724,8.5898496,24.4904535396,0.0,0.0,0.0,51.8,0.2,0.1,0,0,0,0,7,0,0,0,7,0,47.6,0,0,98,4.14,4.121,4.131,4.14,0,0,7.207,54.68,1543.0012193235,69.225724,6,P-GPS,
29300,2023-01-19 11:41:16,46.653196998202,14.2880691124836,69.225724,69.4881912,1473.5130281235,1543.0012193235,40.026248,0.0,20.644849742,36.002953908,20,5,16.526,1543.0012193235,69.225724,8.5898496,24.4904535396,0.0,0.0,0.0,51.8,0.3,0.5,0,0,0,0,0,0,0,0,0,0,47.6,0,0,98,4.14,4.121,4.131,4.14,0,0,7.207,54.68,1543.0012193235,69.225724,6,P-GPS,
29500,2023-01-19 11:41:17,46.653197034307,14.2880691099244,69.225724,69.4881912,1473.5130281235,1543.0012193235,40.026248,0.0,20.6496397684,36.016077268,20,5,16.526,1543.0012193235,69.225724,8.5898496,24.4904535396,0.0,0.0,0.0,51.8,0.5,0.5,0,0,0,0,0,0,0,0,0,0,47.6,0,0,98,4.138,4.12,4.131,4.14,0,0,7.207,54.68,1543.0012193235,69.225724,6,P-GPS,
29700,2023-01-19 11:41:17,46.653197103232,14.2880690858104,69.225724,69.4881912,1473.5130281235,1543.0012193235,40.026248,0.0,20.6544954116,36.041995904,20,5,16.526,1543.0012193235,69.225724,8.5898496,24.4904535396,0.0,0.0,0.0,51.8,0.6,0.3,0,0,0,0,0,0,0,0,0,0,47.6,0,0,98,4.138,4.12,4.131,4.14,0,0,7.207,54.68,1543.0012193235,69.225724,6,P-GPS,
29900,2023-01-19 11:41:17,46.6531971243812,14.2880690781284,69.225724,69.4881912,1473.5130281235,1543.0012193235,40.026248,0.0,20.6559061728,36.04986992,20,5,16.526,1543.0012193235,69.225724,8.5898496,24.4904535396,0.0,0.0,0.0,51.8,0.5,0.3,0,0,0,0,0,0,0,0,0,0,47.6,0,0,98,4.138,4.12,4.131,4.14,0,0,7.207,54.68,1543.0012193235,69.225724,6,P-GPS,
30100,2023-01-19 11:41:17,46.6531971634579,14.2880690578801,69.225724,69.4881912,1473.5130281235,1543.0012193235,40.026248,0.0,20.657152892,36.064961784,20,5,16.526,1543.0012193235,69.225724,8.5898496,24.4904535396,0.0,0.0,0.0,51.8,0.3,0.3,0,0,0,0,0,0,0,0,0,0,47.6,0,0,98,4.138,4.12,4.131,4.14,0,0,7.207,54.68,1543.0012193235,69.225724,6,P-GPS,
30300,2023-01-19 11:41:17,46.653197141723,14.2880690810502,69.225724,69.4881912,1473.5130281235,1543.0012193235,40.026248,0.0,20.6591870128,36.074804304,20,5,16.526,1543.0012193235,69.225724,8.5898496,24.4904535396,0.0,0.0,0.0,51.7,0.3,0.2,0,0,0,0,0,0,0,0,0,0,47.6,0,0,98,4.138,4.12,4.131,4.14,0,0,7.207,54.68,1543.0012193235,69.225724,6,P-GPS,|Startpunkt aufgezeichnet. Höhe des Rückflugs: 70,0 m|
30500,2023-01-19 11:41:18,46.6531971613788,14.2880690637616,69.225724,69.4881912,1473.5130281235,1543.0012193235,40.026248,0.0,20.6581699524,36.083334488,20,5,16.526,1543.0012193235,69.225724,8.5898496,24.4904535396,0.0,0.0,0.0,51.8,0.4,0.1,0,0,0,0,0,0,0,0,0,0,47.6,0,0,98,4.137,4.12,4.129,4.139,0,0,7.145,54.68,1543.0012193235,69.225724,6,P-GPS,
30700,2023-01-19 11:41:18,46.6531971330745,14.2880690485559,69.225724,69.4881912,1473.5130281235,1543.0012193235,40.026248,0.0,20.6504599784,36.09416126,20,5,16.526,1543.0012193235,69.225724,8.5898496,24.4904535396,0.0,0.0,0.0,51.8,0.4,0.1,0,0,0,0,0,0,0,0,0,0,47.6,0,0,98,4.137,4.12,4.129,4.139,0,0,7.145,54.68,1543.0012193235,69.225724,6,P-GPS,
30900,2023-01-19 11:41:18,46.6531971738776,14.288068995405,69.225724,69.4881912,1473.5130281235,1543.0012193235,40.026248,0.0,20.6444560412,36.114174384,20,5,16.526,1543.0012193235,69.225724,8.5898496,24.4904535396,0.0,0.0,0.0,51.7,0.3,0.6,0,0,0,0,0,0,0,0,0,0,47.6,0,0,98,4.137,4.12,4.129,4.139,0,0,7.145,54.68,1543.0012193235,69.225724,6,P-GPS,
31100,2023-01-19 11:41:18,46.6531971639058,14.2880689473227,69.225724,69.4881912,1473.5130281235,1543.0012193235,40.026248,0.0,20.6319888492,36.12696966,20,5,16.526,1543.0012193235,69.225724,8.5898496,24.4904535396,0.0,0.0,0.0,51.8,0.3,0.7,0,0,0,0,0,0,0,0,0,0,47.6,0,0,98,4.137,4.12,4.129,4.139,0,0,7.145,54.68,1543.0012193235,69.225724,6,P-GPS,
31300,2023-01-19 11:41:18,46.6531971757277,14.2880689036753,69.225724,69.4881912,1473.5130281235,1543.0012193235,40.026248,0.0,20.6238195576,36.1384526,20,5,16.526,1543.0012193235,69.225724,8.5898496,24.4904535396,0.0,0.0,0.0,51.8,0.1,0.7,0,0,0,0,0,0,0,0,0,0,47.6,0,0,98,4.137,4.12,4.129,4.139,0,0,7.145,54.68,1543.0012193235,69.225724,6,P-GPS,
31500,2023-01-19 11:41:19,46.6531971438255,14.2880689093546,69.225724,69.4881912,1473.5130281235,1543.0012193235,40.026248,0.0,20.6203090588,36.150263624,20,5,16.526,1543.0012193235,69.225724,8.5898496,24.4904535396,0.0,0.0,0.0,51.7,0,0.6,0,0,0,0,0,0,0,0,0,0,47.6,0,0,98,4.136,4.119,4.127,4.139,0,0,7.123,54.86,1543.0012193235,69.225724,6,P-GPS,
31700,2023-01-19 11:41:19,46.6531971645672,14.2880689159781,69.225724,69.4881912,1473.5130281235,1543.0012193235,40.026248,0.0,20.6249678516,36.15813764,20,5,16.526,1543.0012193235,69.225724,8.5898496,24.4904535396,0.0,0.0,0.0,51.8,0.1,0.5,0,0,0,0,0,0,0,0,0,0,47.6,0,0,98,4.136,4.119,4.127,4.139,0,0,7.123,54.86,1543.0012193235,69.225724,6,P-GPS,
31900,2023-01-19 11:41:19,46.653197138852,14.2880689641184,69.225724,69.4881912,1473.5130281235,1543.0012193235,40.026248,0.0,20.632054466,36.173229504,20,5,16.526,1543.0012193235,69.225724,8.5898496,24.4904535396,0.0,0.0,0.0,51.7,0.3,0.5,0,0,0,0,0,0,0,0,0,0,47.6,0,0,98,4.136,4.119,4.127,4.139,0,0,7.123,54.86,1543.0012193235,69.225724,6,P-GPS,
32100,2023-01-19 11:41:19,46.6531971585884,14.2880689886763,69.225724,69.4881912,1473.5130281235,1543.0012193235,40.026248,0.0,20.6406502668,36.18274394,20,5,16.526,1543.0012193235,69.225724,8.5898496,24.4904535396,0.0,0.0,0.0,51.7,0.3,0.5,0,0,0,0,0,0,0,0,0,0,47.6,0,0,98,4.136,4.119,4.127,4.139,0,0,7.123,54.86,1543.0012193235,69.225724,6,P-GPS,
32300,2023-01-19 11:41:19,46.653197136452,14.2880690336051,69.225724,69.4881912,1473.5130281235,1543.0012193235,40.026248,0.0,20.6475400308,36.196523468,20,5,16.526,1543.0012193235,69.225724,8.5898496,24.4904535396,0.0,0.0,0.0,51.7,0.5,0.3,0,0,0,0,0,0,0,0,0,0,47.6,0,0,98,4.136,4.119,4.127,4.139,0,0,7.123,54.86,1543.0012193235,69.225724,6,P-GPS,
32500,2023-01-19 11:41:20,46.653197162393,14.2880690250504,69.225724,69.4881912,1473.5130281235,1543.0012193235,40.026248,0.0,20.6495085348,36.206365988,20,5,16.521,1543.0012193235,69.225724,8.5898496,24.4904535396,0.0,0.0,0.0,51.8,0.3,0.4,0,0,0,0,0,0,0,0,0,0,47.6,0,0,98,4.136,4.118,4.128,4.137,0,0,7.155,54.86,1543.0012193235,69.225724,6,P-GPS,
32700,2023-01-19 11:41:20,46.6531971477241,14.2880690261065,69.225724,69.4881912,1473.5130281235,1543.0012193235,40.026248,0.0,20.6475400308,36.211615332,20,5,16.521,1543.0012193235,69.225724,8.5898496,24.4904535396,0.0,0.0,0.0,51.8,0.1,0.5,0,0,0,0,0,0,0,0,0,0,47.6,0,0,98,4.136,4.118,4.128,4.137,0,0,7.155,54.86,1543.0012193235,69.225724,6,P-GPS,
32900,2023-01-19 11:41:20,46.6531971767737,14.2880690136394,69.225724,69.4881912,1473.5130281235,1543.0012193235,40.026248,0.0,20.6490820256,36.222770188,20,5,16.521,1543.0012193235,69.225724,8.5898496,24.4904535396,0.0,0.0,0.0,51.7,0,0.6,0,0,0,0,0,0,0,0,0,0,47.6,0,0,98,4.136,4.118,4.128,4.137,0,0,7.155,54.86,1543.0012193235,69.225724,6,P-GPS,
33100,2023-01-19 11:41:20,46.6531971602386,14.2880690391578,69.225724,69.4881912,1473.5130281235,1543.0012193235,40.026248,0.0,20.652395674,36.231628456,20,5,16.521,1543.0012193235,69.225724,8.5898496,24.4904535396,0.0,0.0,0.0,51.8,0.3,0.7,0,0,0,0,0,0,0,0,0,0,47.6,0,0,98,4.136,4.118,4.128,4.137,0,0,7.155,54.86,1543.0012193235,69.225724,6,P-GPS,
33300,2023-01-19 11:41:20,46.6531971802332,14.2880690462105,69.225724,69.4881912,1473.5130281235,1543.0012193235,40.026248,0.0,20.6570216584,36.239174388,20,5,16.521,1543.0012193235,69.225724,8.5898496,24.4904535396,0.0,0.0,0.0,51.8,0.2,0.5,0,0,0,0,0,0,0,0,0,0,47.6,0,0,98,4.136,4.118,4.128,4.137,0,0,7.155,54.86,1543.0012193235,69.225724,6,P-GPS,
